{
    "city_metadata": {
        "city_name": "Henderson",
        "state_code": "NV",
        "state_full": "Nevada",
        "city_summary": "Henderson is a city in Clark County, Nevada, United States, about 16 miles (26 km) southeast of  Las Vegas. It is the 2nd most populous city in Nevada, after Las Vegas, with 317,610 residents as of the 2020 census. The city is part of the Las Vegas Valley.",
        "city_image": "https://upload.wikimedia.org/wikipedia/commons/thumb/6/67/Lake_Las_Vegas_aerial_view.jpg/1280px-Lake_Las_Vegas_aerial_view.jpg",
        "city_lat": 36.03333333,
        "city_lon": -114.98333333,
        "source": "wikipedia_verified_engine"
    },
    "attractions": [
        {
            "type": "node",
            "id": 2084977431,
            "lat": 44.528026,
            "lon": -93.910264,
            "tags": {
                "name": "Sibley County Historic Society and Museum",
                "tourism": "museum",
                "website": "https://www.sibleycountyhistoricalsociety.com/"
            },
            "image_url": "https://upload.wikimedia.org/wikipedia/commons/thumb/1/1c/Sibley_County_Historical_Society_Museum-front-3qtr.jpg/1280px-Sibley_County_Historical_Society_Museum-front-3qtr.jpg",
            "image_source": "wikipedia_verified"
        },
        {
            "type": "node",
            "id": 5550598386,
            "lat": 36.0001168,
            "lon": -114.9207373,
            "tags": {
                "name": "Gap Jump",
                "tourism": "attraction"
            }
        },
        {
            "type": "node",
            "id": 8332280825,
            "lat": 35.9762854,
            "lon": -114.9911299,
            "tags": {
                "name": "Heart Rock Art",
                "tourism": "attraction"
            }
        },
        {
            "type": "node",
            "id": 8336507215,
            "lat": 35.9532362,
            "lon": -114.9884604,
            "tags": {
                "name": "Old Truck",
                "tourism": "attraction"
            }
        },
        {
            "type": "node",
            "id": 8372147057,
            "lat": 36.0399449,
            "lon": -115.0959164,
            "tags": {
                "name": "Rock Circle Art",
                "tourism": "attraction"
            }
        },
        {
            "type": "node",
            "id": 8372147058,
            "lat": 36.0400176,
            "lon": -115.0958814,
            "tags": {
                "name": "Rock Circle Art",
                "tourism": "attraction"
            }
        },
        {
            "type": "node",
            "id": 8372147059,
            "lat": 36.0402442,
            "lon": -115.0953955,
            "tags": {
                "name": "Rock Cross",
                "tourism": "attraction"
            }
        },
        {
            "type": "node",
            "id": 8372984816,
            "lat": 36.0467257,
            "lon": -115.0520334,
            "tags": {
                "name": "Tabletop Jump",
                "tourism": "attraction"
            }
        },
        {
            "type": "node",
            "id": 8372984817,
            "lat": 36.0468114,
            "lon": -115.0521659,
            "tags": {
                "name": "Tabletop Jump",
                "tourism": "attraction"
            }
        },
        {
            "type": "node",
            "id": 8372984818,
            "lat": 36.0468942,
            "lon": -115.0522938,
            "tags": {
                "name": "Tabletop Jump",
                "tourism": "attraction"
            }
        },
        {
            "type": "node",
            "id": 8372984819,
            "lat": 36.0468328,
            "lon": -115.0523825,
            "tags": {
                "name": "Tabletop Jump",
                "tourism": "attraction"
            }
        },
        {
            "type": "node",
            "id": 8372984820,
            "lat": 36.0467721,
            "lon": -115.0522877,
            "tags": {
                "name": "Tabletop Jump",
                "tourism": "attraction"
            }
        },
        {
            "type": "node",
            "id": 8372984821,
            "lat": 36.0467119,
            "lon": -115.0521937,
            "tags": {
                "name": "Tabletop Jump",
                "tourism": "attraction"
            }
        },
        {
            "type": "node",
            "id": 8372984822,
            "lat": 36.0466475,
            "lon": -115.0520932,
            "tags": {
                "name": "Tabletop Jump",
                "tourism": "attraction"
            }
        },
        {
            "type": "node",
            "id": 8372984835,
            "lat": 36.0465873,
            "lon": -115.0522002,
            "tags": {
                "name": "Tabletop Jump",
                "tourism": "attraction"
            }
        },
        {
            "type": "node",
            "id": 8372984836,
            "lat": 36.0466582,
            "lon": -115.0523121,
            "tags": {
                "name": "Tabletop Jump",
                "tourism": "attraction"
            }
        },
        {
            "type": "node",
            "id": 8372984837,
            "lat": 36.0467267,
            "lon": -115.0524209,
            "tags": {
                "name": "Tabletop Jump",
                "tourism": "attraction"
            }
        },
        {
            "type": "node",
            "id": 8373006838,
            "lat": 36.0485505,
            "lon": -115.0515746,
            "tags": {
                "name": "Rock Art \"Yin & Yang\"",
                "tourism": "attraction"
            }
        },
        {
            "type": "node",
            "id": 8373112207,
            "lat": 36.0399144,
            "lon": -115.0959019,
            "tags": {
                "name": "Rock Circle Art",
                "tourism": "attraction"
            }
        },
        {
            "type": "node",
            "id": 8451698486,
            "lat": 36.075846,
            "lon": -115.0624124,
            "tags": {
                "name": "Rock Art",
                "tourism": "attraction"
            }
        },
        {
            "type": "node",
            "id": 8451698487,
            "lat": 36.075923,
            "lon": -115.0624801,
            "tags": {
                "name": "Rock Art",
                "tourism": "attraction"
            }
        },
        {
            "type": "node",
            "id": 8451698490,
            "lat": 36.0760858,
            "lon": -115.062726,
            "tags": {
                "name": "Rock Art",
                "tourism": "attraction"
            }
        },
        {
            "type": "node",
            "id": 8451698491,
            "lat": 36.0766258,
            "lon": -115.0637374,
            "tags": {
                "name": "Rock Art",
                "tourism": "attraction"
            }
        },
        {
            "type": "node",
            "id": 8451730366,
            "lat": 36.0687732,
            "lon": -115.061796,
            "tags": {
                "name": "Bike Jump",
                "tourism": "attraction"
            }
        },
        {
            "type": "node",
            "id": 8451909042,
            "lat": 36.08139,
            "lon": -115.0640828,
            "tags": {
                "name": "Rock Art",
                "tourism": "attraction"
            },
            "image_url": "https://upload.wikimedia.org/wikipedia/commons/3/38/Southeast_Career.jpg",
            "image_source": "wikipedia_verified"
        },
        {
            "type": "node",
            "id": 8461708481,
            "lat": 36.0700036,
            "lon": -115.0622492,
            "tags": {
                "name": "Rock Art",
                "tourism": "attraction"
            }
        },
        {
            "type": "node",
            "id": 10602305255,
            "lat": 36.0012358,
            "lon": -114.9217647,
            "tags": {
                "name": "X Spot",
                "tourism": "attraction"
            }
        },
        {
            "type": "node",
            "id": 11785600961,
            "lat": 35.9195339,
            "lon": -115.1308645,
            "tags": {
                "name": "Jump",
                "tourism": "attraction"
            }
        },
        {
            "type": "node",
            "id": 11785600970,
            "lat": 35.9203626,
            "lon": -115.1313572,
            "tags": {
                "name": "Jump",
                "tourism": "attraction"
            }
        },
        {
            "type": "node",
            "id": 11800367595,
            "lat": 35.999643,
            "lon": -114.9175978,
            "tags": {
                "name": "Gap Jump",
                "tourism": "attraction"
            }
        },
        {
            "type": "node",
            "id": 11801162379,
            "lat": 35.9198232,
            "lon": -115.1638198,
            "tags": {
                "name": "X Spot",
                "tourism": "attraction"
            }
        },
        {
            "type": "node",
            "id": 11801162748,
            "lat": 35.924557,
            "lon": -115.1542748,
            "tags": {
                "name": "X Spot",
                "tourism": "attraction"
            }
        },
        {
            "type": "node",
            "id": 13325148114,
            "lat": 36.0113031,
            "lon": -114.9460647,
            "tags": {
                "name": "Stationary Engines",
                "tourism": "attraction"
            },
            "image_url": "https://upload.wikimedia.org/wikipedia/commons/thumb/d/d6/Clark_County_%28NV%29_Museum_entrance_in_2023.png/1280px-Clark_County_%28NV%29_Museum_entrance_in_2023.png",
            "image_source": "wikipedia_verified"
        },
        {
            "type": "node",
            "id": 13325148120,
            "lat": 36.0114631,
            "lon": -114.9457716,
            "tags": {
                "name": "Ore Wagons",
                "tourism": "attraction"
            },
            "image_url": "https://upload.wikimedia.org/wikipedia/commons/thumb/d/d6/Clark_County_%28NV%29_Museum_entrance_in_2023.png/1280px-Clark_County_%28NV%29_Museum_entrance_in_2023.png",
            "image_source": "wikipedia_verified"
        },
        {
            "type": "node",
            "id": 13325148121,
            "lat": 36.0111865,
            "lon": -114.9451111,
            "tags": {
                "name": "Ranch and Farm Equipment",
                "tourism": "attraction"
            },
            "image_url": "https://upload.wikimedia.org/wikipedia/commons/thumb/d/d6/Clark_County_%28NV%29_Museum_entrance_in_2023.png/1280px-Clark_County_%28NV%29_Museum_entrance_in_2023.png",
            "image_source": "wikipedia_verified"
        },
        {
            "type": "way",
            "id": 100499178,
            "lat": 36.0739344,
            "lon": -115.072082,
            "tags": {
                "addr:city": "Henderson",
                "addr:housenumber": "2",
                "addr:postcode": "89014",
                "addr:state": "NV",
                "addr:street": "Cactus Garden Drive",
                "building": "industrial",
                "man_made": "works",
                "name": "Ethel M. Chocolate Factory",
                "operator": "Ethel M. Chocolates",
                "phone": "+1-702-435-2608",
                "product": "food",
                "shop": "chocolate",
                "tourism": "attraction",
                "website": "https://www.ethelm.com",
                "wikidata": "Q2964298",
                "wikipedia": "en:Ethel M Chocolates"
            }
        },
        {
            "type": "way",
            "id": 167235763,
            "lat": 36.0099474,
            "lon": -114.9456147,
            "tags": {
                "addr:state": "NV",
                "ele": "644",
                "fee": "yes",
                "gnis:feature_id": "2473054",
                "name": "Clark County Museum",
                "opening_hours": "Mo-Su 09:00-16:30; Nov Th[4] off, Dec 25 off, Jan 01 off",
                "operator": "Clark County",
                "phone": "+1-702-455-7955",
                "tourism": "museum",
                "website": "https://www.clarkcountynv.gov/",
                "wheelchair": "yes",
                "wikipedia": "en:Clark County Museum"
            },
            "image_url": "https://upload.wikimedia.org/wikipedia/commons/thumb/d/d6/Clark_County_%28NV%29_Museum_entrance_in_2023.png/1280px-Clark_County_%28NV%29_Museum_entrance_in_2023.png",
            "image_source": "wikipedia_verified"
        },
        {
            "type": "way",
            "id": 412107693,
            "lat": 36.0721196,
            "lon": -115.0246102,
            "tags": {
                "addr:city": "Henderson",
                "addr:housenumber": "900",
                "addr:postcode": "89011",
                "addr:state": "NV",
                "addr:street": "Galleria Drive",
                "leisure": "water_park",
                "name": "Cowabunga Bay Las Vegas",
                "phone": "+1-702-850-9000",
                "tourism": "theme_park",
                "website": "https://cowabungabayvegas.com/",
                "wikidata": "Q7989943",
                "wikipedia": "en:Cowabunga Canyon Waterpark"
            }
        },
        {
            "type": "way",
            "id": 549569799,
            "lat": 36.0741605,
            "lon": -115.0713061,
            "tags": {
                "access": "customers",
                "garden:type": "botanical",
                "leisure": "garden",
                "name": "Ethel M. Chocolate Factory Garden",
                "tourism": "attraction"
            }
        },
        {
            "type": "way",
            "id": 653510778,
            "lat": 32.1587144,
            "lon": -94.7955006,
            "tags": {
                "addr:city": "Henderson",
                "addr:housenumber": "514",
                "addr:postcode": "75652",
                "addr:state": "TX",
                "addr:street": "North High Street",
                "area": "yes",
                "ele": "151",
                "gnis:feature_id": "2014448",
                "museum": "railway",
                "name": "Depot Museum",
                "source": "USGS Geonames",
                "tourism": "museum",
                "website": "http://www.depotmuseum.com/home.html"
            }
        },
        {
            "type": "way",
            "id": 964410350,
            "lat": 36.338417,
            "lon": -78.3999749,
            "tags": {
                "addr:city": "Henderson",
                "addr:housenumber": "629",
                "addr:postcode": "27536",
                "addr:state": "NC",
                "addr:street": "West Rock Spring Street",
                "building": "yes",
                "name": "Henderson Institute Historical Museum",
                "tourism": "museum",
                "website": "https://henderson-institute.org/hi-museum/about-hi-museum/"
            },
            "image_url": "https://upload.wikimedia.org/wikipedia/commons/thumb/6/69/Henderson_Institute_Library.jpg/1280px-Henderson_Institute_Library.jpg",
            "image_source": "wikipedia_verified"
        },
        {
            "type": "way",
            "id": 1377065856,
            "lat": 36.0107637,
            "lon": -114.9457604,
            "tags": {
                "name": "Paiute Village",
                "tourism": "attraction"
            },
            "image_url": "https://upload.wikimedia.org/wikipedia/commons/thumb/d/d6/Clark_County_%28NV%29_Museum_entrance_in_2023.png/1280px-Clark_County_%28NV%29_Museum_entrance_in_2023.png",
            "image_source": "wikipedia_verified"
        },
        {
            "type": "way",
            "id": 1377065863,
            "lat": 36.0111375,
            "lon": -114.9455742,
            "tags": {
                "name": "Ghost Town",
                "tourism": "attraction"
            },
            "image_url": "https://upload.wikimedia.org/wikipedia/commons/thumb/d/d6/Clark_County_%28NV%29_Museum_entrance_in_2023.png/1280px-Clark_County_%28NV%29_Museum_entrance_in_2023.png",
            "image_source": "wikipedia_verified"
        },
        {
            "type": "way",
            "id": 1377065864,
            "lat": 36.0111701,
            "lon": -114.9462891,
            "tags": {
                "name": "Historic Mining Vehicles",
                "tourism": "attraction"
            },
            "image_url": "https://upload.wikimedia.org/wikipedia/commons/thumb/d/d6/Clark_County_%28NV%29_Museum_entrance_in_2023.png/1280px-Clark_County_%28NV%29_Museum_entrance_in_2023.png",
            "image_source": "wikipedia_verified"
        },
        {
            "type": "way",
            "id": 1452989525,
            "lat": 36.0103463,
            "lon": -114.9470839,
            "tags": {
                "name": "Heritage Street of Historic Homes",
                "tourism": "attraction"
            },
            "image_url": "https://upload.wikimedia.org/wikipedia/commons/thumb/d/d6/Clark_County_%28NV%29_Museum_entrance_in_2023.png/1280px-Clark_County_%28NV%29_Museum_entrance_in_2023.png",
            "image_source": "wikipedia_verified"
        },
        {
            "type": "way",
            "id": 1452989539,
            "lat": 36.0093837,
            "lon": -114.946222,
            "tags": {
                "name": "Mojave Gardens Outdoor Classroom",
                "tourism": "attraction"
            },
            "image_url": "https://upload.wikimedia.org/wikipedia/commons/thumb/d/d6/Clark_County_%28NV%29_Museum_entrance_in_2023.png/1280px-Clark_County_%28NV%29_Museum_entrance_in_2023.png",
            "image_source": "wikipedia_verified"
        }
    ]
}