{
    "city_metadata": {
        "city_name": "Santa Cruz",
        "state_code": "CA",
        "state_full": "California",
        "city_summary": "Santa Cruz (Spanish for 'Holy Cross') is the largest city in and the county seat of Santa Cruz County, California. As of the 2020 census, the city population was 62,956. Situated on the northern edge of Monterey Bay, Santa Cruz is a popular tourist destination, owing to its beaches, surf culture, and historic landmarks.",
        "city_image": "https://upload.wikimedia.org/wikipedia/commons/thumb/6/66/Santa_Cruz%2C_California%2C_USA_-_Mission_Santa_Cruz_-144_School_St%2C_Santa_Cruz%2C_CA_95060_-_panoramio_%28cropped%29.jpg/1280px-Santa_Cruz%2C_California%2C_USA_-_Mission_Santa_Cruz_-144_School_St%2C_Santa_Cruz%2C_CA_95060_-_panoramio_%28cropped%29.jpg",
        "city_lat": 36.97194444,
        "city_lon": -122.02638889,
        "source": "wikipedia_verified_engine"
    },
    "attractions": [
        {
            "type": "node",
            "id": 281878155,
            "lat": 14.594679,
            "lon": 121.1676553,
            "tags": {
                "name": "Hinulugang Taktak",
                "source": "rcadayona",
                "tourism": "attraction",
                "waterway": "waterfall",
                "wikidata": "Q1364942",
                "wikipedia": "en:Hinulugang Taktak"
            },
            "image_url": "https://upload.wikimedia.org/wikipedia/commons/thumb/a/ac/Hinulugang_Taktak_National_Park_falls_%28Dela_Paz%2C_Antipolo%2C_Rizal%3B_02-06-2024%29.jpg/1280px-Hinulugang_Taktak_National_Park_falls_%28Dela_Paz%2C_Antipolo%2C_Rizal%3B_02-06-2024%29.jpg",
            "image_source": "wikipedia_verified"
        },
        {
            "type": "node",
            "id": 368174060,
            "lat": 36.9514589,
            "lon": -122.0267093,
            "tags": {
                "addr:city": "Santa Cruz",
                "addr:state": "CA",
                "addr:street": "West Cliff Drive",
                "ele": "8",
                "fee": "yes",
                "gnis:feature_id": "1723311",
                "name": "Santa Cruz Surfing Museum",
                "opening_hours": "Mo, Th-Su 12:00-16:00",
                "operator": "http://www.santacruzsurfingmuseum.org/",
                "source": "USGS Geonames",
                "tourism": "museum",
                "website": "http://www.santacruzsurfingmuseum.org/",
                "wikidata": "Q7419431",
                "wikipedia": "en:Santa Cruz Surfing Museum"
            },
            "image_url": "https://upload.wikimedia.org/wikipedia/commons/thumb/4/46/IMG_9846Santa_Cruz_Lighthouse.jpg/1280px-IMG_9846Santa_Cruz_Lighthouse.jpg",
            "image_source": "wikipedia_verified"
        },
        {
            "type": "node",
            "id": 393482914,
            "lat": 36.9771761,
            "lon": -122.0269429,
            "tags": {
                "amenity": "clock",
                "historic": "monument",
                "name": "Clock Tower",
                "tourism": "attraction"
            },
            "image_url": "https://upload.wikimedia.org/wikipedia/commons/4/41/MissionSantaCruzCalifornia.jpg",
            "image_source": "wikipedia_verified"
        },
        {
            "type": "node",
            "id": 399499080,
            "lat": 36.9532416,
            "lon": -122.0562048,
            "tags": {
                "leisure": "nature_reserve",
                "name": "Monarch Eucalyptus Grove",
                "tourism": "attraction"
            },
            "image_url": "https://upload.wikimedia.org/wikipedia/commons/thumb/4/42/2025-08-11_16_34_37_The_beach_and_the_last_remaining_natural_bridge_at_Natural_Bridges_State_Beach_in_Santa_Cruz%2C_Santa_Cruz_County%2C_California.jpg/1280px-2025-08-11_16_34_37_The_beach_and_the_last_remaining_natural_bridge_at_Natural_Bridges_State_Beach_in_Santa_Cruz%2C_Santa_Cruz_County%2C_California.jpg",
            "image_source": "wikipedia_verified"
        },
        {
            "type": "node",
            "id": 405837246,
            "lat": 36.9598976,
            "lon": -122.0192766,
            "tags": {
                "name": "Stagnaro Fishing Charters & Whale Watching Cruises",
                "tourism": "attraction"
            },
            "image_url": "https://upload.wikimedia.org/wikipedia/commons/thumb/2/24/Under_the_Santa_Cruz_Wharf.JPG/1280px-Under_the_Santa_Cruz_Wharf.JPG",
            "image_source": "wikipedia_verified"
        },
        {
            "type": "node",
            "id": 407731756,
            "lat": 36.9744752,
            "lon": -122.0253696,
            "tags": {
                "addr:housenumber": "705",
                "addr:street": "Front Street",
                "fee": "no",
                "name": "Museum of Art & History",
                "opening_hours": "Tu-Su 11:00-17:00",
                "tourism": "museum",
                "website": "https://www.santacruzmah.org/",
                "wheelchair": "yes",
                "wikidata": "Q6940760"
            },
            "image_url": "https://upload.wikimedia.org/wikipedia/commons/thumb/9/9e/USA-Santa_Cruz-Octagon_Building-1.jpg/1280px-USA-Santa_Cruz-Octagon_Building-1.jpg",
            "image_source": "wikipedia_verified"
        },
        {
            "type": "node",
            "id": 476783651,
            "lat": 36.951248,
            "lon": -122.0245267,
            "tags": {
                "name": "Steamer Lane Surfing",
                "sport": "swimming",
                "tourism": "attraction"
            },
            "image_url": "https://upload.wikimedia.org/wikipedia/commons/f/f4/Steamer_Lane_11-08-09.jpg",
            "image_source": "wikipedia_verified"
        },
        {
            "type": "node",
            "id": 631478339,
            "lat": -47.6651087,
            "lon": -67.9942588,
            "tags": {
                "name": "Museo del Monumento Nacional Bosques Petrificados",
                "tourism": "museum"
            }
        },
        {
            "type": "node",
            "id": 644659329,
            "lat": -50.4265147,
            "lon": -72.7520385,
            "tags": {
                "name": "Ingreso Parque Nacional Los Glaciares",
                "tourism": "attraction"
            }
        },
        {
            "type": "node",
            "id": 654057020,
            "lat": -47.1552731,
            "lon": -70.6559679,
            "tags": {
                "description": "UNESCO World Heritage",
                "heritage": "1",
                "heritage:operator": "whc",
                "historic": "archaeological_site",
                "name": "Cueva de las Manos",
                "name:es": "Cueva de los Manos Pintadas",
                "name:he": "מערת הידיים",
                "name:uk": "Куева-де-лас-Манос",
                "natural": "cave_entrance",
                "ref:whc": "936",
                "tourism": "attraction",
                "whc:criteria": "(iii)",
                "whc:inscription_date": "1999",
                "wikidata": "Q223385",
                "wikipedia": "es:Cueva de las Manos"
            },
            "image_url": "https://upload.wikimedia.org/wikipedia/commons/thumb/f/f4/SantaCruz-CuevaManos-P2210651b.jpg/1280px-SantaCruz-CuevaManos-P2210651b.jpg",
            "image_source": "wikipedia_verified"
        },
        {
            "type": "node",
            "id": 1080080309,
            "lat": -47.7535239,
            "lon": -65.8943338,
            "tags": {
                "name": "Vagón Histórico",
                "tourism": "attraction"
            }
        },
        {
            "type": "node",
            "id": 1725168114,
            "lat": -16.3561093,
            "lon": -60.9641404,
            "tags": {
                "name": "Cueva del Yeso",
                "natural": "cave_entrance",
                "tourism": "attraction"
            }
        },
        {
            "type": "node",
            "id": 1773562158,
            "lat": 12.4977955,
            "lon": -69.9075557,
            "tags": {
                "name": "Boca Prins",
                "tourism": "attraction"
            },
            "image_url": "https://upload.wikimedia.org/wikipedia/commons/thumb/2/27/Plantage_in_Boca_Prins_op_Aruba%2C_Bestanddeelnr_252-7977.jpg/1280px-Plantage_in_Boca_Prins_op_Aruba%2C_Bestanddeelnr_252-7977.jpg",
            "image_source": "wikipedia_verified"
        },
        {
            "type": "node",
            "id": 1773562159,
            "lat": 12.5076367,
            "lon": -69.9496019,
            "tags": {
                "name": "Cunucu Arikok",
                "tourism": "attraction"
            }
        },
        {
            "type": "node",
            "id": 1773562161,
            "lat": 12.49492,
            "lon": -69.9439831,
            "tags": {
                "name": "Miralamar",
                "tourism": "attraction"
            }
        },
        {
            "type": "node",
            "id": 1773562162,
            "lat": 12.4949609,
            "lon": -69.9110369,
            "tags": {
                "name": "Plantage Prins",
                "tourism": "attraction"
            },
            "image_url": "https://upload.wikimedia.org/wikipedia/commons/thumb/2/27/Plantage_in_Boca_Prins_op_Aruba%2C_Bestanddeelnr_252-7977.jpg/1280px-Plantage_in_Boca_Prins_op_Aruba%2C_Bestanddeelnr_252-7977.jpg",
            "image_source": "wikipedia_verified"
        },
        {
            "type": "node",
            "id": 1801900765,
            "lat": -18.4591088,
            "lon": -59.5055001,
            "tags": {
                "name": "El Burriño",
                "natural": "spring",
                "tourism": "attraction"
            }
        },
        {
            "type": "node",
            "id": 1801900769,
            "lat": -18.4665398,
            "lon": -59.4959466,
            "tags": {
                "name": "El Puente",
                "natural": "spring",
                "tourism": "attraction"
            }
        },
        {
            "type": "node",
            "id": 1801900773,
            "lat": -18.4498319,
            "lon": -59.513768,
            "tags": {
                "name": "Los Hervores",
                "natural": "spring",
                "source": "survey",
                "tourism": "attraction"
            }
        },
        {
            "type": "node",
            "id": 1820751519,
            "lat": -18.1783094,
            "lon": -63.8740978,
            "tags": {
                "addr:city": "Samaipata",
                "addr:street": "Calle Bolivar",
                "name": "Museo Arqueológico Regional de Samaipata",
                "operator": "CIAS",
                "tourism": "museum"
            },
            "image_url": "https://upload.wikimedia.org/wikipedia/commons/thumb/a/ae/Church_in_Santa_Cruz_Department%2C_Bolivia_-_2020.jpg/1280px-Church_in_Santa_Cruz_Department%2C_Bolivia_-_2020.jpg",
            "image_source": "wikipedia_verified"
        },
        {
            "type": "node",
            "id": 1828180942,
            "lat": -6.2395559,
            "lon": -36.0208733,
            "tags": {
                "man_made": "monument",
                "name": "Estátua de Santa Rita",
                "tourism": "attraction",
                "wikidata": "Q16489191",
                "wikipedia": "pt:Estátua de Santa Rita de Cássia"
            }
        },
        {
            "type": "node",
            "id": 1897055068,
            "lat": -18.1875819,
            "lon": -63.5595882,
            "tags": {
                "alt_name": "Confluencia Rios Bermejo y Piojera",
                "confluence": "Rio Bermejo;Rio Piojeras",
                "name": "Nacimiento Rio Pirai (Confluencia Rios Bermejo y Piojeras)",
                "tourism": "attraction",
                "waterway": "confluence"
            },
            "image_url": "https://upload.wikimedia.org/wikipedia/commons/thumb/0/08/R%C3%ADo_Pira%C3%AD_-_Santa_Cruz_-_Bolivia.jpg/1280px-R%C3%ADo_Pira%C3%AD_-_Santa_Cruz_-_Bolivia.jpg",
            "image_source": "wikipedia_verified"
        },
        {
            "type": "node",
            "id": 2107854899,
            "lat": -17.8827385,
            "lon": -60.7383769,
            "tags": {
                "covered": "no",
                "leisure": "swimming_pool",
                "name": "Balneario \"El Suto\"",
                "sport": "swimming",
                "tourism": "attraction"
            }
        },
        {
            "type": "node",
            "id": 2157691065,
            "lat": -46.4423078,
            "lon": -67.5250305,
            "tags": {
                "name": "Museo Regional",
                "tourism": "museum"
            }
        },
        {
            "type": "node",
            "id": 2291985643,
            "lat": -34.5924946,
            "lon": -71.2919298,
            "tags": {
                "craft": "winery",
                "name": "Clos Apalta, Viña Lapostolle",
                "phone": "+56 722953350",
                "shop": "wine",
                "tourism": "attraction",
                "website": "https://www.lapostolle.com/"
            }
        },
        {
            "type": "node",
            "id": 2291985653,
            "lat": -34.6123524,
            "lon": -71.2736714,
            "tags": {
                "addr:housenumber": "Parcela 15",
                "addr:street": "Camino a Millahue de Apalta",
                "email": "tours@monteswines.com",
                "man_made": "winery",
                "name": "Viña Montes",
                "name:en": "Montes Wines",
                "phone": "+56 72817815",
                "shop": "wine",
                "tourism": "attraction",
                "website": "https://www.monteswines.com/"
            }
        },
        {
            "type": "node",
            "id": 2296299102,
            "lat": 36.9834292,
            "lon": -122.0386943,
            "tags": {
                "name": "Train Engine",
                "tourism": "attraction"
            }
        },
        {
            "type": "node",
            "id": 2343687022,
            "lat": 37.3857729,
            "lon": -5.9916715,
            "tags": {
                "denomination": "catholic",
                "historic": "memorial",
                "inscription": "Una Ave Maria",
                "material": "stone",
                "memorial": "cross",
                "name": "Una Ave María",
                "religion": "christian",
                "source": "survey",
                "tourism": "attraction"
            },
            "image_url": "https://upload.wikimedia.org/wikipedia/commons/thumb/4/47/Sevilla_Cathedral_-_Giralda.jpg/1280px-Sevilla_Cathedral_-_Giralda.jpg",
            "image_source": "wikipedia_verified"
        },
        {
            "type": "node",
            "id": 2514300244,
            "lat": -34.6394218,
            "lon": -71.3137161,
            "tags": {
                "man_made": "winery",
                "name": "Viña Lapostolle, Bodega Cunaco",
                "phone": "+56 72 2953300",
                "shop": "wine",
                "tourism": "attraction",
                "website": "https://www.lapostolle.com/"
            }
        },
        {
            "type": "node",
            "id": 2565289138,
            "lat": -18.6663169,
            "lon": -64.3284564,
            "tags": {
                "confluence": "Rio Grande;Rio Mizque",
                "name": "Confluencia Rio Grande y Rio Mizque",
                "tourism": "attraction",
                "waterway": "confluence"
            }
        },
        {
            "type": "node",
            "id": 2627098735,
            "lat": -51.6240391,
            "lon": -69.2175328,
            "tags": {
                "addr:city": "Río Gallegos",
                "addr:housename": "Museo de Arte Eduardo Minnicelli",
                "addr:housenumber": "13",
                "addr:postcode": "9400",
                "addr:street": "Maipú",
                "email": "museominnicelli@gmail.com",
                "fee": "yes",
                "name": "Museo de Arte Eduardo Minnicelli",
                "tourism": "museum",
                "website": "http://museominnicelli.santacruz.gov.ar/",
                "wikidata": "Q84526366"
            },
            "image_url": "https://upload.wikimedia.org/wikipedia/commons/thumb/b/b9/G%C3%BCer_Aike_%28Provincia_de_Santa_Cruz_-_Argentina%29.svg/1280px-G%C3%BCer_Aike_%28Provincia_de_Santa_Cruz_-_Argentina%29.svg.png",
            "image_source": "wikipedia_verified"
        },
        {
            "type": "node",
            "id": 2757598853,
            "lat": -51.624725,
            "lon": -69.1962728,
            "tags": {
                "name": "Centro de Interpretación Ambiental",
                "tourism": "museum"
            }
        },
        {
            "type": "node",
            "id": 3046881655,
            "lat": -13.7574809,
            "lon": -60.978484,
            "tags": {
                "name": "Catarata Federico Ahlfeld",
                "tourism": "attraction",
                "waterway": "waterfall",
                "wikidata": "Q8342789"
            }
        },
        {
            "type": "node",
            "id": 3105563711,
            "lat": -51.6153835,
            "lon": -69.2259719,
            "tags": {
                "addr:housenumber": "100",
                "addr:street": "Elcano",
                "contact:facebook": "https://www.facebook.com/casaparisirgl",
                "name": "Museo de los Pioneros",
                "tourism": "museum"
            }
        },
        {
            "type": "node",
            "id": 3215079219,
            "lat": -17.7830616,
            "lon": -63.1827863,
            "tags": {
                "addr:city": "Santa Cruz de la Sierra",
                "addr:street": "Calle Libertad",
                "name": "Rectorado",
                "source": "Reconocimiento cartográfico de campo 2016 por KG",
                "tourism": "museum"
            },
            "image_url": "https://upload.wikimedia.org/wikipedia/commons/a/a7/Bas%C3%ADlica_Menor_de_San_Lorenzo_Santa_Cruz_Bolivia.jpg",
            "image_source": "wikipedia_verified"
        },
        {
            "type": "node",
            "id": 3270332997,
            "lat": -13.7805307,
            "lon": -60.9460973,
            "tags": {
                "alt_name": "Cascada Arco Iris",
                "height": "88",
                "name": "Catarata Arcoiris",
                "tourism": "attraction",
                "waterway": "waterfall",
                "width": "20",
                "wikidata": "Q8342787"
            }
        },
        {
            "type": "node",
            "id": 3285615570,
            "lat": -20.3982582,
            "lon": -63.3476951,
            "tags": {
                "historic": "battlefield",
                "name": "La Muela del Diablo",
                "natural": "peak",
                "tourism": "attraction"
            }
        },
        {
            "type": "node",
            "id": 3301411599,
            "lat": -47.7510421,
            "lon": -65.9193517,
            "tags": {
                "addr:city": "Puerto Deseado",
                "addr:housenumber": "255",
                "addr:postcode": "9050",
                "addr:street": "España",
                "name": "Darwin Expediciones",
                "tourism": "attraction"
            },
            "image_url": "https://upload.wikimedia.org/wikipedia/commons/5/5c/Deseado_Montaje.jpg",
            "image_source": "wikipedia_verified"
        },
        {
            "type": "node",
            "id": 3323399594,
            "lat": -50.0022169,
            "lon": -68.9326626,
            "tags": {
                "name": "Casa de Luis Piedrabuena",
                "tourism": "attraction"
            },
            "image_url": "https://upload.wikimedia.org/wikipedia/commons/thumb/3/3b/River_santa_cruz_argentina.JPG/1280px-River_santa_cruz_argentina.JPG",
            "image_source": "wikipedia_verified"
        },
        {
            "type": "node",
            "id": 3337678595,
            "lat": -50.3366032,
            "lon": -72.3398342,
            "tags": {
                "addr:city": "El Calafate",
                "name": "Glaciarium",
                "name:en": "Glaciarium",
                "opening_hours": "13:00-19:00",
                "phone": "+54 2902 497912",
                "tourism": "museum",
                "website": "https://www.glaciarium.com/",
                "wikidata": "Q5566113",
                "wikipedia": "es:Glaciarium"
            }
        },
        {
            "type": "node",
            "id": 3923539712,
            "lat": 37.3824327,
            "lon": -5.996256,
            "tags": {
                "addr:housenumber": "41001",
                "addr:street": "Paseo de Cristóbal Colón",
                "fee": "no",
                "height": "36.8",
                "name": "Museo Naval Torre del Oro",
                "name:zh": "黃金塔",
                "operator": "Fundación Museo Naval",
                "tourism": "museum",
                "wheelchair": "no"
            },
            "image_url": "https://upload.wikimedia.org/wikipedia/commons/thumb/b/b2/Torre_del_Oro_flag_Seville_Spain.jpg/1280px-Torre_del_Oro_flag_Seville_Spain.jpg",
            "image_source": "wikipedia_verified"
        },
        {
            "type": "node",
            "id": 3946389239,
            "lat": 10.4396152,
            "lon": -85.7900185,
            "tags": {
                "name": "Amberes",
                "source": "KG Ground Survey 2016",
                "tourism": "attraction"
            }
        },
        {
            "type": "node",
            "id": 3988859647,
            "lat": -17.7863207,
            "lon": -63.224865,
            "tags": {
                "name": "Paseo de Los Próceres",
                "tourism": "attraction"
            }
        },
        {
            "type": "node",
            "id": 4018934829,
            "lat": -18.4522645,
            "lon": -59.5087889,
            "tags": {
                "name": "Balneario Pando",
                "source": "survey",
                "tourism": "attraction"
            }
        },
        {
            "type": "node",
            "id": 4018934830,
            "lat": -18.4025694,
            "lon": -59.6407072,
            "tags": {
                "name": "Parque Ecológico El Manantial",
                "tourism": "attraction"
            }
        },
        {
            "type": "node",
            "id": 4018937510,
            "lat": -18.4593436,
            "lon": -59.497436,
            "tags": {
                "name": "Aguas Calientes Beirut",
                "tourism": "attraction"
            }
        },
        {
            "type": "node",
            "id": 4018943543,
            "lat": -18.3463858,
            "lon": -59.5507547,
            "tags": {
                "name": "Cuevas de Miserendino",
                "source": "survey",
                "tourism": "attraction"
            }
        },
        {
            "type": "node",
            "id": 4030735703,
            "lat": -18.1683252,
            "lon": -63.5234772,
            "tags": {
                "addr:street": "RN7: La Guardia-Samaipata",
                "name": "El Chorrito",
                "tourism": "attraction"
            }
        },
        {
            "type": "node",
            "id": 4036849944,
            "lat": -17.7821198,
            "lon": -63.1832372,
            "tags": {
                "name": "Paseo Artesanal La Recova",
                "shop": "art",
                "source": "survey",
                "tourism": "attraction"
            },
            "image_url": "https://upload.wikimedia.org/wikipedia/commons/a/a7/Bas%C3%ADlica_Menor_de_San_Lorenzo_Santa_Cruz_Bolivia.jpg",
            "image_source": "wikipedia_verified"
        },
        {
            "type": "node",
            "id": 4047288896,
            "lat": -18.3872251,
            "lon": -59.6421356,
            "tags": {
                "historic": "archaeological_site",
                "name": "Pinturas Rupestres",
                "source": "survey",
                "tourism": "attraction"
            }
        },
        {
            "type": "node",
            "id": 4049944509,
            "lat": -17.6266634,
            "lon": -63.1459677,
            "tags": {
                "historic": "aircraft_wreck",
                "monument": "airplane",
                "name": "Accidente Aereo CP-1319 Curtiss C46",
                "operator": "SkyTeam Cargo",
                "start_date": "2012-04-21",
                "tourism": "attraction",
                "website": "https://aviation-safety.net/database/record.php?id=20120421-0&lang=es"
            }
        },
        {
            "type": "node",
            "id": 4078268495,
            "lat": -17.7927126,
            "lon": -63.1818843,
            "tags": {
                "addr:street": "Avenida Irala",
                "name": "Museo de Historia Natural Noel Kempf Mercado",
                "opening_hours": "Mo-Fr 08:00-12:00,15:00-18:00",
                "source": "survey",
                "tourism": "museum"
            },
            "image_url": "https://upload.wikimedia.org/wikipedia/commons/5/5d/ESTADIORAMONAGUILERACOSTAS.jpg",
            "image_source": "wikipedia_verified"
        },
        {
            "type": "node",
            "id": 4097613695,
            "lat": -17.4051586,
            "lon": -63.7326731,
            "tags": {
                "name": "Museo Arqueológico y Cultural San Carlos",
                "source": "Geoinquietos SC",
                "tourism": "museum"
            }
        },
        {
            "type": "node",
            "id": 4103762622,
            "lat": -17.7835828,
            "lon": -63.1776819,
            "tags": {
                "addr:city": "Santa Cruz de la Sierra",
                "addr:housenumber": "364",
                "addr:street": "Calle Sucre",
                "amenity": "planetarium",
                "name": "Science Corner CBA",
                "opening_hours": "We-Sa 09:00-12:00, Tu-Su 14:30-19:30",
                "operator": "CBA",
                "payment": "yes",
                "tourism": "museum",
                "wheelchair": "yes"
            },
            "image_url": "https://upload.wikimedia.org/wikipedia/commons/thumb/f/fb/Catedral_Bas%C3%ADlica_Menor_de_San_Lorenzo%2C_Santa_Cruz_de_la_Sierra.jpg/1280px-Catedral_Bas%C3%ADlica_Menor_de_San_Lorenzo%2C_Santa_Cruz_de_la_Sierra.jpg",
            "image_source": "wikipedia_verified"
        },
        {
            "type": "node",
            "id": 4126990470,
            "lat": -46.7955524,
            "lon": -67.9498426,
            "tags": {
                "addr:city": "Pico Truncado",
                "addr:postcode": "9015",
                "addr:street": "Avenida Gobernador Gregores",
                "name": "Museo de Pico Truncado",
                "opening_hours": "Mo-Fr 08:00-14:00",
                "phone": "0297 499-9845",
                "tourism": "museum",
                "website": "https://museo-de-pico-truncado.business.site/"
            },
            "image_url": "https://upload.wikimedia.org/wikipedia/commons/a/a9/PortadaPicoTruncado.png",
            "image_source": "wikipedia_verified"
        },
        {
            "type": "node",
            "id": 4127139879,
            "lat": -17.7618636,
            "lon": -63.1510546,
            "tags": {
                "name": "El Castillo",
                "source": "Geoinquietos SC",
                "tourism": "attraction"
            }
        },
        {
            "type": "node",
            "id": 4189617271,
            "lat": -17.7838847,
            "lon": -63.1824714,
            "tags": {
                "addr:street": "Calle Libertad",
                "name": "Museo de la Independencia",
                "opening_hours": "Mo-Fr 10:00 -12:00, 16:00-19:00",
                "source": "Geoinquietos SC",
                "tourism": "museum"
            },
            "image_url": "https://upload.wikimedia.org/wikipedia/commons/a/a7/Bas%C3%ADlica_Menor_de_San_Lorenzo_Santa_Cruz_Bolivia.jpg",
            "image_source": "wikipedia_verified"
        },
        {
            "type": "node",
            "id": 4211879491,
            "lat": -46.5396869,
            "lon": -71.6100971,
            "tags": {
                "name": "Juegos para Niños",
                "tourism": "attraction"
            }
        },
        {
            "type": "node",
            "id": 4211888090,
            "lat": -46.5392657,
            "lon": -71.6102309,
            "tags": {
                "name": "Monumento al Salmon",
                "tourism": "attraction"
            }
        },
        {
            "type": "node",
            "id": 4211894989,
            "lat": -46.5386944,
            "lon": -71.6096514,
            "tags": {
                "name": "Mirador del Lago",
                "tourism": "attraction"
            }
        },
        {
            "type": "node",
            "id": 4229160297,
            "lat": -6.550666,
            "lon": -78.8891139,
            "tags": {
                "name": "Baños Termales de Chancay Baños",
                "tourism": "attraction"
            }
        },
        {
            "type": "node",
            "id": 4291857793,
            "lat": -20.0648762,
            "lon": -63.5173624,
            "tags": {
                "alt_name": "Inbochi",
                "name": "Imbochi",
                "tourism": "attraction"
            }
        },
        {
            "type": "node",
            "id": 4294943889,
            "lat": -17.7727408,
            "lon": -63.1841353,
            "tags": {
                "name": "Jarana Carnavalera",
                "tourism": "attraction"
            }
        },
        {
            "type": "node",
            "id": 4295035490,
            "lat": -17.7722364,
            "lon": -63.1818147,
            "tags": {
                "name": "Juventud Carnavalera",
                "tourism": "attraction"
            }
        },
        {
            "type": "node",
            "id": 4295147296,
            "lat": -17.8321089,
            "lon": -63.1024781,
            "tags": {
                "name": "cancha de césped sintética",
                "tourism": "attraction"
            }
        },
        {
            "type": "node",
            "id": 4325295807,
            "lat": -18.1049276,
            "lon": -63.5985881,
            "tags": {
                "name": "Refugio Los Volcanes",
                "tourism": "attraction"
            }
        },
        {
            "type": "node",
            "id": 4334603393,
            "lat": -18.0584972,
            "lon": -63.9098928,
            "tags": {
                "name": "Bosque de Helechos La Yunga",
                "tourism": "attraction"
            }
        },
        {
            "type": "node",
            "id": 4336190290,
            "lat": -18.3460861,
            "lon": -63.8365402,
            "tags": {
                "name": "Entrada a Loma de Condores",
                "tourism": "attraction"
            }
        },
        {
            "type": "node",
            "id": 4344574803,
            "lat": -6.8167165,
            "lon": -79.07654,
            "tags": {
                "name": "Laguna de Udima",
                "tourism": "attraction"
            }
        },
        {
            "type": "node",
            "id": 4353630888,
            "lat": 13.0528035,
            "lon": 120.7553411,
            "tags": {
                "name": "Upland Rice Site",
                "tourism": "attraction"
            }
        },
        {
            "type": "node",
            "id": 4353635244,
            "lat": 13.0566023,
            "lon": 120.7701452,
            "tags": {
                "name": "Upland Rice Site",
                "tourism": "attraction"
            }
        },
        {
            "type": "node",
            "id": 4353637887,
            "lat": 13.0566869,
            "lon": 120.7700819,
            "tags": {
                "name": "Upland Rice Site",
                "tourism": "attraction"
            }
        },
        {
            "type": "node",
            "id": 4353642651,
            "lat": 13.0572051,
            "lon": 120.7701245,
            "tags": {
                "name": "Upland Rice Site",
                "tourism": "attraction"
            }
        },
        {
            "type": "node",
            "id": 4353658290,
            "lat": 13.0623352,
            "lon": 120.7862691,
            "tags": {
                "name": "Upland Rice Site",
                "tourism": "attraction"
            }
        },
        {
            "type": "node",
            "id": 4355001690,
            "lat": 13.1613594,
            "lon": 120.7395556,
            "tags": {
                "name": "Upland Rice Site, Sitio Calomintao, Brgy. Alacaak",
                "tourism": "attraction"
            }
        },
        {
            "type": "node",
            "id": 4374229089,
            "lat": -17.6433742,
            "lon": -63.1589592,
            "tags": {
                "name": "Aqualand",
                "name:es": "Aqualand",
                "tourism": "attraction"
            }
        },
        {
            "type": "node",
            "id": 4383576392,
            "lat": 37.3862299,
            "lon": -5.9916299,
            "tags": {
                "name": "Barrio Santa cruz",
                "name:es": "Barrio Santa cruz",
                "name:pt": "bairro Santa Cruz",
                "tourism": "attraction"
            },
            "image_url": "https://upload.wikimedia.org/wikipedia/commons/thumb/4/47/Sevilla_Cathedral_-_Giralda.jpg/1280px-Sevilla_Cathedral_-_Giralda.jpg",
            "image_source": "wikipedia_verified"
        },
        {
            "type": "node",
            "id": 4404098790,
            "lat": -18.2837475,
            "lon": -59.7462842,
            "tags": {
                "name": "Cascada De Los Helechos",
                "name:es": "Cascada de los Helechos",
                "tourism": "attraction"
            }
        },
        {
            "type": "node",
            "id": 4419636174,
            "lat": -17.9010461,
            "lon": -63.4377006,
            "tags": {
                "addr:city": "Espejillos",
                "leisure": "park",
                "name": "Monumento Natural Espejillos",
                "tourism": "attraction"
            }
        },
        {
            "type": "node",
            "id": 4419649001,
            "lat": -17.9006536,
            "lon": -63.441048,
            "tags": {
                "addr:city": "Espejillos",
                "name": "Pozas Naturales de Espejillos",
                "tourism": "attraction"
            }
        },
        {
            "type": "node",
            "id": 4522439091,
            "lat": -50.3312092,
            "lon": -72.265186,
            "tags": {
                "name": "Centro de Interpretación Histórica",
                "name:es": "Centro de Interpretación Histórica",
                "tourism": "museum"
            }
        },
        {
            "type": "node",
            "id": 4611765492,
            "lat": -19.4113638,
            "lon": -62.1215444,
            "tags": {
                "name": "Kaa-lya Grand Chaco NP",
                "name:es": "Kaa-lya Grand Chaco NP",
                "tourism": "attraction"
            }
        },
        {
            "type": "node",
            "id": 4616709264,
            "lat": -17.8289252,
            "lon": -63.3222684,
            "tags": {
                "historic": "castle",
                "name": "Castillo Abandonado de Porongo",
                "tourism": "attraction"
            }
        },
        {
            "type": "node",
            "id": 4635344782,
            "lat": -17.7842528,
            "lon": -63.1817852,
            "tags": {
                "addr:street": "Calle René Moreno",
                "name": "Museo Catedralicio de Arte Sacro Monseñor Carlos Gericke Suarez)",
                "opening_hours": "Mo-Fr 15:00-18:00",
                "payment": "yes",
                "tourism": "museum"
            },
            "image_url": "https://upload.wikimedia.org/wikipedia/commons/thumb/f/fb/Catedral_Bas%C3%ADlica_Menor_de_San_Lorenzo%2C_Santa_Cruz_de_la_Sierra.jpg/1280px-Catedral_Bas%C3%ADlica_Menor_de_San_Lorenzo%2C_Santa_Cruz_de_la_Sierra.jpg",
            "image_source": "wikipedia_verified"
        },
        {
            "type": "node",
            "id": 4639884725,
            "lat": -17.8049243,
            "lon": -63.1790375,
            "tags": {
                "name": "Museo de Historia Nacional Teniente Coronel German Bush",
                "opening_hours": "Mo-Fr 08:00-11:00, 14:00-17:00",
                "tourism": "museum"
            }
        },
        {
            "type": "node",
            "id": 4647829792,
            "lat": 37.3857166,
            "lon": -5.9890807,
            "tags": {
                "fee": "no",
                "name": "Casa de Murillo",
                "name:es": "Casa de murillo",
                "tourism": "museum",
                "wikidata": "Q5047920",
                "wikimedia_commons": "Category:Casa de Murillo",
                "wikipedia": "en:Casa de Murillo"
            },
            "image_url": "https://upload.wikimedia.org/wikipedia/commons/thumb/a/ad/SevillaCasaMuseoMurillo.JPG/1280px-SevillaCasaMuseoMurillo.JPG",
            "image_source": "wikipedia_verified"
        },
        {
            "type": "node",
            "id": 4664351693,
            "lat": -46.5268903,
            "lon": -71.6544815,
            "tags": {
                "name": "Mirador",
                "name:es": "Mirador",
                "tourism": "attraction"
            }
        },
        {
            "type": "node",
            "id": 4674651391,
            "lat": -34.6315252,
            "lon": -71.3737749,
            "tags": {
                "craft": "winery",
                "name": "Viña Laura Hartwig",
                "name:en": "Winery Laura Hartwig",
                "tourism": "attraction"
            }
        },
        {
            "type": "node",
            "id": 4675973789,
            "lat": 14.61405,
            "lon": 121.1495374,
            "tags": {
                "name": "martessem",
                "name:en": "martessem",
                "tourism": "attraction"
            }
        },
        {
            "type": "node",
            "id": 4686850391,
            "lat": -51.6231758,
            "lon": -69.2112984,
            "tags": {
                "name": "Balcón de Roca (MHN)",
                "name:es": "Balcón de Roca (MHN)",
                "tourism": "attraction"
            },
            "image_url": "https://upload.wikimedia.org/wikipedia/commons/4/4e/Rio_Gallegos_Montaje.jpg",
            "image_source": "wikipedia_verified"
        },
        {
            "type": "node",
            "id": 4686866389,
            "lat": -51.615106,
            "lon": -69.2292549,
            "tags": {
                "name": "Museo Regional Manuel Molina",
                "name:es": "Museo Regional Manuel Molina",
                "tourism": "museum"
            }
        },
        {
            "type": "node",
            "id": 4696115690,
            "lat": -52.3331187,
            "lon": -68.356026,
            "tags": {
                "addr:city": "Cabo Vírgenes",
                "name": "Museo del Faro",
                "name:es": "Museo del Faro",
                "source": "https://www.tiemposur.com.ar/nota/128641-el-museo-del-faro-de-cabo-virgenes-contara-con-su-propia-biblioteca",
                "tourism": "museum"
            },
            "image_url": "https://upload.wikimedia.org/wikipedia/commons/1/1a/Capes_in_the_Americas.png",
            "image_source": "wikipedia_verified"
        },
        {
            "type": "node",
            "id": 4696115691,
            "lat": -52.3323058,
            "lon": -68.3570307,
            "tags": {
                "name": "Ruta 40 Km 0 -Comienzo de la Ruta Nacional 40-",
                "name:en": "Beginning of Route 40",
                "name:es": "Km 0 Ruta 40",
                "tourism": "attraction"
            },
            "image_url": "https://upload.wikimedia.org/wikipedia/commons/1/1a/Capes_in_the_Americas.png",
            "image_source": "wikipedia_verified"
        },
        {
            "type": "node",
            "id": 4716718094,
            "lat": -17.8441001,
            "lon": -60.7404165,
            "tags": {
                "name": "Artesanías",
                "name:es": "Artesanías",
                "tourism": "attraction"
            }
        },
        {
            "type": "node",
            "id": 4722255981,
            "lat": -47.0306111,
            "lon": -70.6946925,
            "tags": {
                "name": "\"Ice cream clay\"",
                "tourism": "attraction"
            }
        },
        {
            "type": "node",
            "id": 4793218522,
            "lat": -49.489232,
            "lon": -72.9547132,
            "tags": {
                "country": "AR",
                "name": "Mirador península Ventisquero",
                "tourism": "attraction"
            }
        },
        {
            "type": "node",
            "id": 4833659721,
            "lat": -16.0582466,
            "lon": -60.8651596,
            "tags": {
                "name": "Monte Cristo Hacienda",
                "name:es": "Monte Cristo Hacienda",
                "tourism": "attraction"
            }
        },
        {
            "type": "node",
            "id": 4872384029,
            "lat": -18.3446159,
            "lon": -59.605233,
            "tags": {
                "name": "Sendero Las Posas",
                "tourism": "attraction"
            }
        },
        {
            "type": "node",
            "id": 4872689521,
            "lat": -16.1358963,
            "lon": -62.0240355,
            "tags": {
                "name": "Museo Misional",
                "name:es": "Museo Misional",
                "tourism": "museum"
            },
            "image_url": "https://upload.wikimedia.org/wikipedia/commons/thumb/d/d1/Concepcion_church.JPG/1280px-Concepcion_church.JPG",
            "image_source": "wikipedia_verified"
        },
        {
            "type": "node",
            "id": 4888559523,
            "lat": 37.3852402,
            "lon": -5.9933949,
            "tags": {
                "name": "Cabildo Catedral",
                "name:es": "Cabildo Catedral",
                "toilets:wheelchair": "yes",
                "tourism": "attraction",
                "wheelchair": "yes",
                "wheelchair:description": "Ein \"Muss\" wenn man in Sevilla ist ! Alles barrierefrei, Behinderten-Wc am Eingang & Ausgang. Turm ist bis zur 34 Ebene barrierefrei, aber bei 35 Ebenen sind noch 17 Stufen zu überwinden (Zusammenfassung: 47m höhe, >30% Steigung, 35 Ebenen, alleine"
            },
            "image_url": "https://upload.wikimedia.org/wikipedia/commons/thumb/d/d5/Tumba_de_Colon-Sevilla.jpg/1280px-Tumba_de_Colon-Sevilla.jpg",
            "image_source": "wikipedia_verified"
        },
        {
            "type": "node",
            "id": 4893947325,
            "lat": 37.3857623,
            "lon": -5.9923988,
            "tags": {
                "name": "Sevilla Oficialtours",
                "name:es": "Sevilla Oficialtours",
                "tourism": "attraction",
                "wheelchair": "yes"
            },
            "image_url": "https://upload.wikimedia.org/wikipedia/commons/thumb/4/47/Sevilla_Cathedral_-_Giralda.jpg/1280px-Sevilla_Cathedral_-_Giralda.jpg",
            "image_source": "wikipedia_verified"
        },
        {
            "type": "node",
            "id": 4893947326,
            "lat": 37.3856472,
            "lon": -5.9912925,
            "tags": {
                "name": "Agustinas Convento de la Encarnacion",
                "name:es": "Agustinas Convento de la Encarnacion",
                "tourism": "attraction"
            },
            "image_url": "https://upload.wikimedia.org/wikipedia/commons/2/24/Plaza_santa_amrta_sevilla.jpg",
            "image_source": "wikipedia_verified"
        },
        {
            "type": "node",
            "id": 4893960422,
            "lat": 37.3861902,
            "lon": -5.9925213,
            "tags": {
                "name": "La Giralda",
                "name:es": "La Giralda",
                "name:zh": "吉拉達塔",
                "tourism": "attraction",
                "website": "https://es.wikipedia.org/wiki/Giralda"
            },
            "image_url": "https://upload.wikimedia.org/wikipedia/commons/thumb/4/47/Sevilla_Cathedral_-_Giralda.jpg/1280px-Sevilla_Cathedral_-_Giralda.jpg",
            "image_source": "wikipedia_verified"
        },
        {
            "type": "node",
            "id": 4893960522,
            "lat": 37.3854736,
            "lon": -5.9930455,
            "tags": {
                "historic": "tomb",
                "name": "Tumba de Cristóbal Colón",
                "tomb": "sarcophagus",
                "tourism": "attraction",
                "wikidata": "Q6153784",
                "wikimedia_commons": "Category:Tomb of Christopher Columbus, Seville",
                "wikipedia": "es:Tumba de Cristóbal Colón"
            },
            "image_url": "https://upload.wikimedia.org/wikipedia/commons/thumb/d/d5/Tumba_de_Colon-Sevilla.jpg/1280px-Tumba_de_Colon-Sevilla.jpg",
            "image_source": "wikipedia_verified"
        },
        {
            "type": "node",
            "id": 4893960621,
            "lat": 37.3852701,
            "lon": -5.9912224,
            "tags": {
                "name": "Foro de la Biodiversidad",
                "name:es": "Foro de la Biodiversidad",
                "tourism": "attraction",
                "wikidata": "Q2888526",
                "wikipedia": "es:Foro de la Biodiversidad (Sevilla)"
            },
            "image_url": "https://upload.wikimedia.org/wikipedia/commons/2/24/Plaza_santa_amrta_sevilla.jpg",
            "image_source": "wikipedia_verified"
        },
        {
            "type": "node",
            "id": 4909845322,
            "lat": -18.1237733,
            "lon": -63.8645617,
            "tags": {
                "name": "Helecho Gigante",
                "tourism": "attraction"
            }
        },
        {
            "type": "node",
            "id": 4909845323,
            "lat": -18.123507,
            "lon": -63.8635453,
            "tags": {
                "name": "Helechos Gigantes",
                "tourism": "attraction"
            }
        },
        {
            "type": "node",
            "id": 4909852221,
            "lat": -18.1240315,
            "lon": -63.8642841,
            "tags": {
                "name": "Pino Negro",
                "tourism": "attraction"
            }
        },
        {
            "type": "node",
            "id": 4909852321,
            "lat": -18.1232109,
            "lon": -63.8632546,
            "tags": {
                "name": "Arroyo ando",
                "tourism": "attraction"
            }
        },
        {
            "type": "node",
            "id": 4931105251,
            "lat": -18.4917672,
            "lon": -64.1087651,
            "tags": {
                "name": "Museo Histocheval",
                "source": "Geoinquietos SC",
                "tourism": "museum"
            }
        },
        {
            "type": "node",
            "id": 4933013723,
            "lat": -18.1633795,
            "lon": -63.8152869,
            "tags": {
                "name": "Achira Entrada",
                "tourism": "attraction"
            }
        },
        {
            "type": "node",
            "id": 4933013822,
            "lat": -18.1399111,
            "lon": -63.818417,
            "tags": {
                "name": "Sendero Espiral Luz Inicio Rio",
                "tourism": "attraction"
            }
        },
        {
            "type": "node",
            "id": 4943206859,
            "lat": -18.7953297,
            "lon": -64.201131,
            "tags": {
                "description": "el museo es comunitario y se paga un monto Bs. 10",
                "fee": "yes",
                "name": "Museo Comunal La Higuera",
                "tourism": "museum"
            },
            "image_url": "https://upload.wikimedia.org/wikipedia/commons/thumb/3/3f/Che_Guevara_statue.jpg/1280px-Che_Guevara_statue.jpg",
            "image_source": "wikipedia_verified"
        },
        {
            "type": "node",
            "id": 4944387387,
            "lat": -18.7776917,
            "lon": -64.2124269,
            "tags": {
                "description": "Este es el lugar de captura de Ernesto Guevara en el año 1967",
                "name": "La Estrella",
                "tourism": "attraction"
            }
        },
        {
            "type": "node",
            "id": 4956732021,
            "lat": 37.3850269,
            "lon": -5.9923384,
            "tags": {
                "name": "Plaza del Triunfo",
                "name:es": "Plaza del Triunfo",
                "tourism": "attraction",
                "wheelchair": "yes",
                "wikidata": "Q3906571",
                "wikimedia_commons": "Category:Plaza del Triunfo, Seville",
                "wikipedia": "es:Plaza del Triunfo (Sevilla)"
            },
            "image_url": "https://upload.wikimedia.org/wikipedia/commons/thumb/d/d5/Tumba_de_Colon-Sevilla.jpg/1280px-Tumba_de_Colon-Sevilla.jpg",
            "image_source": "wikipedia_verified"
        },
        {
            "type": "node",
            "id": 4956732121,
            "lat": 37.3826092,
            "lon": -5.9934051,
            "tags": {
                "name": "Plaza de Puerta Jerez",
                "name:es": "Plaza de Puerta Jerez",
                "tourism": "attraction"
            },
            "image_url": "https://upload.wikimedia.org/wikipedia/commons/e/e0/RI-51-0000079_Capilla_Sta_Maria_Jesus-Sevilla_03.jpg",
            "image_source": "wikipedia_verified"
        },
        {
            "type": "node",
            "id": 4958790023,
            "lat": -16.5849369,
            "lon": -60.6835245,
            "tags": {
                "name": "El Viboron",
                "name:es": "El Viboron",
                "tourism": "attraction"
            },
            "image_url": "https://upload.wikimedia.org/wikipedia/commons/thumb/8/8a/Santa_Ana_church.JPG/1280px-Santa_Ana_church.JPG",
            "image_source": "wikipedia_verified"
        },
        {
            "type": "node",
            "id": 4990872321,
            "lat": -47.6672376,
            "lon": -67.9956326,
            "tags": {
                "name": "Bosque petrificado Jaramillo",
                "name:es": "Bosque petrificado Jaramillo",
                "tourism": "attraction"
            }
        },
        {
            "type": "node",
            "id": 5001825524,
            "lat": -15.969026,
            "lon": -64.483312,
            "tags": {
                "name": "Combate",
                "name:es": "Combate",
                "tourism": "attraction"
            }
        },
        {
            "type": "node",
            "id": 5001825525,
            "lat": -15.9827148,
            "lon": -64.402819,
            "tags": {
                "name": "Cabaña don Juan",
                "name:es": "Cabaña don Juan",
                "tourism": "attraction"
            }
        },
        {
            "type": "node",
            "id": 5037922821,
            "lat": -47.6678467,
            "lon": -67.9940988,
            "tags": {
                "name": "Bosque petrificado Jaramillo",
                "name:es": "Bosque petrificado Jaramillo",
                "tourism": "attraction"
            }
        },
        {
            "type": "node",
            "id": 5043826221,
            "lat": -18.1392229,
            "lon": -63.6332175,
            "tags": {
                "name": "Vivero Gingers",
                "tourism": "attraction"
            }
        },
        {
            "type": "node",
            "id": 5052623824,
            "lat": -18.1572637,
            "lon": -63.6345832,
            "tags": {
                "name": "Cascada",
                "name:es": "Cascada",
                "tourism": "attraction"
            }
        },
        {
            "type": "node",
            "id": 5052630421,
            "lat": -18.1622583,
            "lon": -63.6292767,
            "tags": {
                "name": "Cruce",
                "name:es": "Cruce",
                "tourism": "attraction"
            }
        },
        {
            "type": "node",
            "id": 5054595722,
            "lat": -18.1441844,
            "lon": -63.6301094,
            "tags": {
                "name": "Ginger's Paradise",
                "tourism": "attraction"
            }
        },
        {
            "type": "node",
            "id": 5057525921,
            "lat": -18.14542,
            "lon": -63.6409383,
            "tags": {
                "name": "Otro camino a mirar",
                "name:es": "Otro camino a mirar",
                "tourism": "attraction"
            }
        },
        {
            "type": "node",
            "id": 5098134225,
            "lat": -17.7588361,
            "lon": -63.1848961,
            "tags": {
                "name": "Museo Guaraní",
                "name:en": "Guaraní museum",
                "tourism": "museum"
            }
        },
        {
            "type": "node",
            "id": 5167750421,
            "lat": -51.6615383,
            "lon": -69.1967233,
            "tags": {
                "addr:postcode": "9400",
                "name": "Reserva Costera Urbana",
                "name:en": "Urban Coastal Reserve",
                "opening_hours": "We-Su 15:00-19:00",
                "tourism": "attraction"
            }
        },
        {
            "type": "node",
            "id": 5196930345,
            "lat": -51.6123809,
            "lon": -69.2251519,
            "tags": {
                "name": "Museo Ferroviario Roberto Galian",
                "tourism": "museum",
                "wikidata": "Q10940165",
                "wikipedia": "es:Museo Ferroviario Roberto Galian"
            }
        },
        {
            "type": "node",
            "id": 5221244022,
            "lat": 37.3847732,
            "lon": -5.988781,
            "tags": {
                "addr:street": "Callejón del Agua",
                "name": "Muralla islámica (s.XI-XII)",
                "opening_hours": "24/7",
                "tourism": "attraction",
                "wikimedia_commons": "File:Sevilla (Spanien); historische Wasserleitung a.jpg"
            },
            "image_url": "https://upload.wikimedia.org/wikipedia/commons/thumb/a/ad/SevillaCasaMuseoMurillo.JPG/1280px-SevillaCasaMuseoMurillo.JPG",
            "image_source": "wikipedia_verified"
        },
        {
            "type": "node",
            "id": 5225504727,
            "lat": -50.1727532,
            "lon": -73.299856,
            "tags": {
                "name": "Glacuar Seco",
                "name:en": "Seco Glaciar",
                "name:fr": "Glacier Seco",
                "tourism": "attraction"
            }
        },
        {
            "type": "node",
            "id": 5225512622,
            "lat": -50.0205558,
            "lon": -73.2677149,
            "tags": {
                "name": "Brazo Upsala",
                "name:en": "Upsala channel",
                "name:fr": "Bras Upsala",
                "tourism": "attraction"
            }
        },
        {
            "type": "node",
            "id": 5225717421,
            "lat": -50.2401726,
            "lon": -73.3258565,
            "tags": {
                "name": "Glaciar Spegazzini",
                "name:en": "Spegazzini Glaciar",
                "name:es": "Glacier Spegazzini",
                "tourism": "attraction"
            }
        },
        {
            "type": "node",
            "id": 5235373652,
            "lat": -14.62501,
            "lon": -60.6969564,
            "tags": {
                "name": "Catarata El Encanto",
                "tourism": "attraction",
                "waterway": "waterfall"
            }
        },
        {
            "type": "node",
            "id": 5287412521,
            "lat": -51.6159431,
            "lon": -69.2271001,
            "tags": {
                "name": "Monumento a Don Bosco",
                "name:en": "monumento a Don Bosco",
                "tourism": "attraction"
            }
        },
        {
            "type": "node",
            "id": 5319438645,
            "lat": -18.4794777,
            "lon": -64.1127765,
            "tags": {
                "access": "yes",
                "historic": "monument",
                "name": "El Cristo Redentor",
                "tourism": "attraction"
            }
        },
        {
            "type": "node",
            "id": 5337127866,
            "lat": -18.4825297,
            "lon": -64.0966633,
            "tags": {
                "name": "Museo Cultural VGD",
                "tourism": "museum"
            },
            "image_url": "https://upload.wikimedia.org/wikipedia/commons/thumb/4/48/Plaza_Principal_de_la_ciudad_de_Vallegrande_%28Santa_Cruz_-_Bolivia%29.jpg/1280px-Plaza_Principal_de_la_ciudad_de_Vallegrande_%28Santa_Cruz_-_Bolivia%29.jpg",
            "image_source": "wikipedia_verified"
        },
        {
            "type": "node",
            "id": 5338062460,
            "lat": -18.4946372,
            "lon": -64.1077431,
            "tags": {
                "name": "Lavandería Ernesto Guevara",
                "tourism": "attraction"
            }
        },
        {
            "type": "node",
            "id": 5351544621,
            "lat": -46.8304896,
            "lon": -71.8579137,
            "tags": {
                "name": "Estancia La Frontera",
                "note": "Turismo Aventura",
                "place": "isolated_dwelling",
                "tourism": "attraction"
            }
        },
        {
            "type": "node",
            "id": 5353306822,
            "lat": -49.5837129,
            "lon": -71.4049791,
            "tags": {
                "name": "Piedra Clavada",
                "tourism": "attraction"
            }
        },
        {
            "type": "node",
            "id": 5358910123,
            "lat": -16.0038408,
            "lon": -62.5554814,
            "tags": {
                "amenity": "public_bath",
                "attraction": "swimming",
                "name": "Aguas Tibias",
                "tourism": "attraction"
            }
        },
        {
            "type": "node",
            "id": 5434257921,
            "lat": -50.1336326,
            "lon": -68.3736237,
            "tags": {
                "name": "Pingüinera Punta Entrada",
                "tourism": "attraction"
            }
        },
        {
            "type": "node",
            "id": 5438658194,
            "lat": -47.8015318,
            "lon": -69.0105049,
            "tags": {
                "name": "Swiss Cheese Mountains",
                "tourism": "attraction"
            }
        },
        {
            "type": "node",
            "id": 5449806524,
            "lat": 13.5294173,
            "lon": 122.1229817,
            "tags": {
                "name": "Road crossing tree",
                "tourism": "attraction"
            }
        },
        {
            "type": "node",
            "id": 5449806525,
            "lat": 13.5343512,
            "lon": 122.1266935,
            "tags": {
                "name": "Beach",
                "tourism": "attraction"
            }
        },
        {
            "type": "node",
            "id": 5449806528,
            "lat": 13.5238839,
            "lon": 122.1729331,
            "tags": {
                "name": "Beach",
                "tourism": "attraction"
            }
        },
        {
            "type": "node",
            "id": 5449814026,
            "lat": 13.5223727,
            "lon": 122.1245114,
            "tags": {
                "name": "Small beach",
                "tourism": "attraction"
            }
        },
        {
            "type": "node",
            "id": 5449823922,
            "lat": 13.5344573,
            "lon": 122.1280828,
            "tags": {
                "name": "White sand Beach",
                "tourism": "attraction"
            }
        },
        {
            "type": "node",
            "id": 5449823923,
            "lat": 13.5206753,
            "lon": 122.1268824,
            "tags": {
                "name": "Tiny beach",
                "tourism": "attraction"
            }
        },
        {
            "type": "node",
            "id": 5449828521,
            "lat": 13.5269728,
            "lon": 122.1132002,
            "tags": {
                "name": "Beach",
                "tourism": "attraction"
            }
        },
        {
            "type": "node",
            "id": 5467517083,
            "lat": -47.6686275,
            "lon": -67.9940058,
            "tags": {
                "name": "Bosque petrificado Jaramillo",
                "name:es": "Bosque petrificado Jaramillo",
                "tourism": "attraction"
            }
        },
        {
            "type": "node",
            "id": 5467517084,
            "lat": -47.6688587,
            "lon": -67.9944349,
            "tags": {
                "name": "Bosque petrificado Jaramillo",
                "name:es": "Bosque petrificado Jaramillo",
                "tourism": "attraction"
            }
        },
        {
            "type": "node",
            "id": 5467517085,
            "lat": -47.6713441,
            "lon": -67.9929651,
            "tags": {
                "name": "Bosque petrificado Jaramillo",
                "name:es": "Bosque petrificado Jaramillo",
                "tourism": "attraction"
            }
        },
        {
            "type": "node",
            "id": 5473210449,
            "lat": -49.3129063,
            "lon": -72.8894666,
            "tags": {
                "name": "Museo Estancia Fitz Roy Mad Madsen",
                "tourism": "museum"
            }
        },
        {
            "type": "node",
            "id": 5530608393,
            "lat": -22.9233438,
            "lon": -43.6929381,
            "tags": {
                "name": "Ecomuseu Comunitário de Santa Cruz",
                "tourism": "museum",
                "wikidata": "Q10270027",
                "wikipedia": "pt:Ecomuseu de Santa Cruz"
            }
        },
        {
            "type": "node",
            "id": 5532675295,
            "lat": -18.4018438,
            "lon": -63.8208001,
            "tags": {
                "alt_name": "Cascada La Pajcha",
                "height": "30",
                "name": "La Pajcha",
                "tourism": "attraction",
                "waterway": "waterfall",
                "width": "3"
            }
        },
        {
            "type": "node",
            "id": 5607512531,
            "lat": -14.266759,
            "lon": -43.170425,
            "tags": {
                "historic": "monument",
                "man_made": "yes",
                "name": "Cristo Redentor",
                "religion": "christian",
                "tourism": "attraction"
            }
        },
        {
            "type": "node",
            "id": 5619253122,
            "lat": 37.384426,
            "lon": -5.9915937,
            "tags": {
                "name": "Patronato del Real Alcazar",
                "tourism": "attraction"
            },
            "image_url": "https://upload.wikimedia.org/wikipedia/commons/thumb/b/bd/Archivo_de_Indias_002.jpg/1280px-Archivo_de_Indias_002.jpg",
            "image_source": "wikipedia_verified"
        },
        {
            "type": "node",
            "id": 5633305726,
            "lat": -48.748549,
            "lon": -70.2552637,
            "tags": {
                "historic": "memorial",
                "memorial": "sculpture",
                "name": "Monumento al Gaucho Argentino",
                "tourism": "attraction"
            }
        },
        {
            "type": "node",
            "id": 5744660421,
            "lat": -16.3622188,
            "lon": -58.3945668,
            "tags": {
                "name": "Cristo",
                "tourism": "attraction"
            }
        },
        {
            "type": "node",
            "id": 5824580654,
            "lat": 9.97907,
            "lon": -83.707044,
            "tags": {
                "name": "2 Cataratas",
                "tourism": "attraction"
            }
        },
        {
            "type": "node",
            "id": 5824587154,
            "lat": 9.9791888,
            "lon": -83.7070196,
            "tags": {
                "name": "1 Catarata",
                "tourism": "attraction"
            }
        },
        {
            "type": "node",
            "id": 5930475305,
            "lat": 12.5049385,
            "lon": -69.9179605,
            "tags": {
                "name": "Dos Playa",
                "tourism": "attraction"
            }
        },
        {
            "type": "node",
            "id": 6019692591,
            "lat": -14.546216,
            "lon": -61.4929698,
            "tags": {
                "alt_name": "Cerro Pelao",
                "name": "Cerro Pelau",
                "place": "locality",
                "tourism": "attraction"
            }
        },
        {
            "type": "node",
            "id": 6040041291,
            "lat": -49.051588,
            "lon": -72.8774082,
            "tags": {
                "name": "Puerto Vespignani",
                "tourism": "attraction"
            }
        },
        {
            "type": "node",
            "id": 6049284887,
            "lat": -49.1661839,
            "lon": -67.6187949,
            "tags": {
                "name": "Garganta del Diablo",
                "tourism": "attraction"
            }
        },
        {
            "type": "node",
            "id": 6061857686,
            "lat": -49.5968353,
            "lon": -71.4490039,
            "tags": {
                "name": "Hypodrome",
                "tourism": "attraction"
            }
        },
        {
            "type": "node",
            "id": 6086884089,
            "lat": -50.4892251,
            "lon": -73.044813,
            "tags": {
                "name": "Enbarcadero MiniTrekking",
                "tourism": "attraction"
            }
        },
        {
            "type": "node",
            "id": 6089050085,
            "lat": -50.3116617,
            "lon": -72.7981693,
            "tags": {
                "name": "Embarcadero Cristina",
                "tourism": "attraction"
            }
        },
        {
            "type": "node",
            "id": 6089050185,
            "lat": -49.903714,
            "lon": -73.2875577,
            "tags": {
                "name": "Glaciar Upsala",
                "tourism": "attraction"
            }
        },
        {
            "type": "node",
            "id": 6089050285,
            "lat": -49.9051301,
            "lon": -73.279588,
            "tags": {
                "name": "Glaciar Upsala",
                "tourism": "attraction"
            }
        },
        {
            "type": "node",
            "id": 6132024500,
            "lat": 9.9580609,
            "lon": -83.7256789,
            "tags": {
                "name": "Catarata Folio 28",
                "tourism": "attraction"
            }
        },
        {
            "type": "node",
            "id": 6132024545,
            "lat": 9.965323,
            "lon": -83.7786626,
            "tags": {
                "name": "Catarata Río Turrialba",
                "tourism": "attraction"
            }
        },
        {
            "type": "node",
            "id": 6132024546,
            "lat": 9.9792332,
            "lon": -83.7072313,
            "tags": {
                "name": "Cataratas las Trillizas",
                "tourism": "attraction"
            }
        },
        {
            "type": "node",
            "id": 6137378785,
            "lat": -52.0685327,
            "lon": -69.5546648,
            "tags": {
                "name": "El zorro muerto",
                "tourism": "attraction"
            }
        },
        {
            "type": "node",
            "id": 6179621011,
            "lat": -51.5365092,
            "lon": -72.3336061,
            "tags": {
                "name": "Cartel de Río Turbio",
                "tourism": "attraction"
            }
        },
        {
            "type": "node",
            "id": 6179980756,
            "lat": 37.3860169,
            "lon": -5.9935845,
            "tags": {
                "fee": "yes",
                "name": "Museo Catedralicio",
                "name:en": "Museum and Treasury of Seville",
                "name:fr": "Musée de la Cathédrale de Séville",
                "tourism": "museum"
            },
            "image_url": "https://upload.wikimedia.org/wikipedia/commons/thumb/a/a8/Avenida_de_la_Constituci%C3%B3n.jpg/1280px-Avenida_de_la_Constituci%C3%B3n.jpg",
            "image_source": "wikipedia_verified"
        },
        {
            "type": "node",
            "id": 6205540786,
            "lat": -18.0883464,
            "lon": -64.2123665,
            "tags": {
                "name": "Cueva de Mataral",
                "tourism": "attraction"
            }
        },
        {
            "type": "node",
            "id": 6214464785,
            "lat": -18.3246108,
            "lon": -63.0282303,
            "tags": {
                "name": "iglesia el dorado",
                "tourism": "attraction"
            }
        },
        {
            "type": "node",
            "id": 6230192585,
            "lat": -47.7765461,
            "lon": -72.206293,
            "tags": {
                "name": "Passarella Rio Volcan",
                "tourism": "attraction"
            }
        },
        {
            "type": "node",
            "id": 6240102285,
            "lat": -50.2948297,
            "lon": -72.2025684,
            "tags": {
                "check_date": "2026-02-26",
                "email": "info@puntawalichu.com",
                "fee": "yes",
                "museum": "archaeological",
                "name": "Punta Walichu (Cuevas de Gualicho)",
                "opening_hours": "Mo-Su 09:00-20:30",
                "phone": "+54 9 2902 402073",
                "tourism": "museum",
                "website": "https://puntawalichu.com/"
            }
        },
        {
            "type": "node",
            "id": 6286345286,
            "lat": -50.0193242,
            "lon": -68.5121561,
            "tags": {
                "name": "Museo Casa de los pioneros Mario Hernández",
                "tourism": "museum"
            }
        },
        {
            "type": "node",
            "id": 6295263945,
            "lat": -49.8325475,
            "lon": -72.1071086,
            "tags": {
                "name": "Bosque Petrificado La Leona",
                "name:en": "La Leona Petrified Forest",
                "name:es": "Bosque Petrificado La Leona",
                "place": "locality",
                "tourism": "attraction"
            }
        },
        {
            "type": "node",
            "id": 6340882602,
            "lat": -17.1249415,
            "lon": -63.436882,
            "tags": {
                "alt_name": "Azubi",
                "name": "asubi",
                "name:en": "asubi",
                "name:es": "asubi",
                "tourism": "attraction"
            }
        },
        {
            "type": "node",
            "id": 6399774786,
            "lat": -18.3692202,
            "lon": -59.58716,
            "tags": {
                "name": "Soledad",
                "tourism": "attraction"
            }
        },
        {
            "type": "node",
            "id": 6399774985,
            "lat": -18.3556554,
            "lon": -59.6057308,
            "tags": {
                "name": "Las Cachuelas II",
                "tourism": "attraction",
                "waterway": "waterfall"
            }
        },
        {
            "type": "node",
            "id": 6399774986,
            "lat": -18.3519369,
            "lon": -59.6025857,
            "tags": {
                "name": "Las Cachuelas I",
                "tourism": "attraction",
                "waterway": "waterfall"
            }
        },
        {
            "type": "node",
            "id": 6402664290,
            "lat": -18.2924242,
            "lon": -59.6672115,
            "tags": {
                "archaeological_site": "rock_painting",
                "historic": "archaeological_site",
                "name": "Pinturas Rupestres de Motacú",
                "tourism": "attraction"
            }
        },
        {
            "type": "node",
            "id": 6431133085,
            "lat": 12.499996,
            "lon": -69.9087603,
            "tags": {
                "name": "Fontijn",
                "tourism": "attraction"
            }
        },
        {
            "type": "node",
            "id": 6459515585,
            "lat": -17.8464592,
            "lon": -60.7217768,
            "tags": {
                "name": "Sendero Turubó",
                "tourism": "attraction"
            }
        },
        {
            "type": "node",
            "id": 6473862985,
            "lat": -18.3314296,
            "lon": -59.5569258,
            "tags": {
                "name": "La punta",
                "tourism": "attraction"
            }
        },
        {
            "type": "node",
            "id": 6586531285,
            "lat": 12.4996859,
            "lon": -69.94851,
            "tags": {
                "name": "Arikok National Park",
                "name:en": "Arikok National Park",
                "tourism": "attraction"
            }
        },
        {
            "type": "node",
            "id": 6601161416,
            "lat": -18.1786314,
            "lon": -63.8204238,
            "tags": {
                "description": "Se encuentran representados dos felinos en alto relieve dentro de una elevación circular",
                "name": "Felinos",
                "petroglyph": "yes",
                "tourism": "attraction"
            },
            "image_url": "https://upload.wikimedia.org/wikipedia/commons/thumb/6/64/View_of_Fort_Samaipata_Rock.jpg/1280px-View_of_Fort_Samaipata_Rock.jpg",
            "image_source": "wikipedia_verified"
        },
        {
            "type": "node",
            "id": 6601161419,
            "lat": -18.1785396,
            "lon": -63.8200092,
            "tags": {
                "description": "dos canales paralelos de 26m de largo, en sus lados están acompañados de incisiones más finas en forma de zig zag",
                "name": "Dorso Serpiente",
                "petroglyph": "yes",
                "tourism": "attraction"
            },
            "image_url": "https://upload.wikimedia.org/wikipedia/commons/thumb/6/64/View_of_Fort_Samaipata_Rock.jpg/1280px-View_of_Fort_Samaipata_Rock.jpg",
            "image_source": "wikipedia_verified"
        },
        {
            "type": "node",
            "id": 6601161420,
            "lat": -18.1787047,
            "lon": -63.8199745,
            "tags": {
                "name": "Templo de la Sacristía",
                "tourism": "attraction"
            },
            "image_url": "https://upload.wikimedia.org/wikipedia/commons/thumb/6/64/View_of_Fort_Samaipata_Rock.jpg/1280px-View_of_Fort_Samaipata_Rock.jpg",
            "image_source": "wikipedia_verified"
        },
        {
            "type": "node",
            "id": 6601161425,
            "lat": -18.1786619,
            "lon": -63.8194769,
            "tags": {
                "name": "Nicho Incas",
                "tourism": "attraction"
            },
            "image_url": "https://upload.wikimedia.org/wikipedia/commons/thumb/6/64/View_of_Fort_Samaipata_Rock.jpg/1280px-View_of_Fort_Samaipata_Rock.jpg",
            "image_source": "wikipedia_verified"
        },
        {
            "type": "node",
            "id": 6601161426,
            "lat": -18.1784485,
            "lon": -63.8195928,
            "tags": {
                "name": "Coro Sacerdotes",
                "petroglyph": "yes",
                "tourism": "attraction"
            },
            "image_url": "https://upload.wikimedia.org/wikipedia/commons/thumb/6/64/View_of_Fort_Samaipata_Rock.jpg/1280px-View_of_Fort_Samaipata_Rock.jpg",
            "image_source": "wikipedia_verified"
        },
        {
            "type": "node",
            "id": 6601161427,
            "lat": -18.1782282,
            "lon": -63.8192893,
            "tags": {
                "name": "Templo de las Cinco Hornacinas",
                "petroglyph": "yes",
                "tourism": "attraction"
            },
            "image_url": "https://upload.wikimedia.org/wikipedia/commons/thumb/6/64/View_of_Fort_Samaipata_Rock.jpg/1280px-View_of_Fort_Samaipata_Rock.jpg",
            "image_source": "wikipedia_verified"
        },
        {
            "type": "node",
            "id": 6672542685,
            "lat": -16.2754478,
            "lon": -62.5011242,
            "tags": {
                "name": "Piedra de los Apóstoles",
                "tourism": "attraction"
            }
        },
        {
            "type": "node",
            "id": 6712282751,
            "lat": -51.6256459,
            "lon": -69.2216255,
            "tags": {
                "name": "Cañón",
                "tourism": "attraction"
            },
            "image_url": "https://upload.wikimedia.org/wikipedia/commons/thumb/b/b9/G%C3%BCer_Aike_%28Provincia_de_Santa_Cruz_-_Argentina%29.svg/1280px-G%C3%BCer_Aike_%28Provincia_de_Santa_Cruz_-_Argentina%29.svg.png",
            "image_source": "wikipedia_verified"
        },
        {
            "type": "node",
            "id": 6712282752,
            "lat": -51.62567,
            "lon": -69.2215744,
            "tags": {
                "name": "Cañón",
                "tourism": "attraction"
            },
            "image_url": "https://upload.wikimedia.org/wikipedia/commons/thumb/b/b9/G%C3%BCer_Aike_%28Provincia_de_Santa_Cruz_-_Argentina%29.svg/1280px-G%C3%BCer_Aike_%28Provincia_de_Santa_Cruz_-_Argentina%29.svg.png",
            "image_source": "wikipedia_verified"
        },
        {
            "type": "node",
            "id": 6776979863,
            "lat": -18.3317968,
            "lon": -59.7218822,
            "tags": {
                "name": "Chorro de San Luis",
                "tourism": "attraction",
                "waterway": "waterfall"
            }
        },
        {
            "type": "node",
            "id": 6786476285,
            "lat": -16.5337999,
            "lon": -62.3511516,
            "tags": {
                "addr:housenumber": "0001",
                "addr:postcode": "00033",
                "addr:street": "Av. Santa rosa",
                "email": "ortegaberriossalomon@gmail.com",
                "name": "Valle hermoso",
                "phone": "77074949",
                "tourism": "attraction"
            }
        },
        {
            "type": "node",
            "id": 6898378085,
            "lat": -18.4895669,
            "lon": -64.1075998,
            "tags": {
                "description": "Se puede comprar el boleto para la lavandería, maosuleo, fosa del Che",
                "name": "Museo Arqueológico",
                "name:en": "Archeological Museum",
                "tourism": "museum"
            }
        },
        {
            "type": "node",
            "id": 7073910885,
            "lat": 10.4465235,
            "lon": -85.7730327,
            "tags": {
                "addr:street": "Inside Costa Rica Sailing Center",
                "name": "Buceo Potrero",
                "name:en": "Scuba Dive Potrero",
                "opening_hours": "Tu-Su 07:30-16:00",
                "tourism": "attraction"
            }
        },
        {
            "type": "node",
            "id": 7252818385,
            "lat": -17.0267347,
            "lon": -61.86459,
            "tags": {
                "addr:city": "Hacienda San Miguelito",
                "name": "San Miguelito Jaguar Conservation Ranch",
                "tourism": "zoo",
                "zoo": "wildlife_park"
            }
        },
        {
            "type": "node",
            "id": 7333037385,
            "lat": -16.1623689,
            "lon": -62.6490968,
            "tags": {
                "name": "casa Pluto",
                "tourism": "attraction"
            }
        },
        {
            "type": "node",
            "id": 7487982785,
            "lat": -47.0247155,
            "lon": -70.6900288,
            "tags": {
                "name": "Sendero Tierra de Colores",
                "name:de": "Wanderweg",
                "tourism": "attraction"
            }
        },
        {
            "type": "node",
            "id": 8225745154,
            "lat": -17.3979492,
            "lon": -63.7247908,
            "tags": {
                "name": "vasijas cultura arqueológica",
                "name:en": "San Carlos camino a buen retiro",
                "tourism": "museum"
            }
        },
        {
            "type": "node",
            "id": 8262647918,
            "lat": -15.9591924,
            "lon": -64.476509,
            "tags": {
                "name": "Comunidad Combate",
                "tourism": "attraction"
            }
        },
        {
            "type": "node",
            "id": 8262647919,
            "lat": -15.9766334,
            "lon": -64.4269962,
            "tags": {
                "name": "\"Los turos\" cementerio indígena",
                "tourism": "attraction"
            }
        },
        {
            "type": "node",
            "id": 8262653218,
            "lat": -15.9767014,
            "lon": -64.4246179,
            "tags": {
                "name": "\"Los Turos\" Cementerio Indígena",
                "name:en": "Los Turos\" Cementerio Indígena",
                "tourism": "attraction"
            }
        },
        {
            "type": "node",
            "id": 8564431274,
            "lat": 6.9369631,
            "lon": 125.3602249,
            "tags": {
                "addr:hamlet": "Kidaran",
                "addr:housenumber": "14",
                "addr:neighbourhood": "Purok Butoy",
                "addr:postcode": "8001",
                "addr:street": "Bendigo Street",
                "addr:village": "Tibolo",
                "fixme": "verify name and location",
                "name": "Mulberry Village",
                "tourism": "attraction"
            }
        },
        {
            "type": "node",
            "id": 8644097294,
            "lat": -17.9280199,
            "lon": -63.1682351,
            "tags": {
                "name": "Árbol de la vida",
                "natural": "tree",
                "source": "survey",
                "species": "Ficus",
                "tourism": "attraction"
            }
        },
        {
            "type": "node",
            "id": 8648050317,
            "lat": -17.7970855,
            "lon": -63.2064304,
            "tags": {
                "addr:street": "Calle Mitimí",
                "name": "Parada de Porongo",
                "name:en": "Español",
                "tourism": "attraction"
            }
        },
        {
            "type": "node",
            "id": 8661895417,
            "lat": -18.1570704,
            "lon": -63.921217,
            "tags": {
                "addr:street": "Camino Mairana-Monteagudo",
                "name": "La cumbre",
                "tourism": "attraction"
            }
        },
        {
            "type": "node",
            "id": 8890614517,
            "lat": -18.2132581,
            "lon": -63.670207,
            "tags": {
                "name": "Mirador",
                "tourism": "attraction"
            }
        },
        {
            "type": "node",
            "id": 8946205617,
            "lat": -18.2481753,
            "lon": -63.6680869,
            "tags": {
                "name": "Mirador",
                "tourism": "attraction"
            }
        },
        {
            "type": "node",
            "id": 8961173217,
            "lat": -18.5264334,
            "lon": -63.8087763,
            "tags": {
                "height": "20",
                "name": "Cascada PostrerValle",
                "tourism": "attraction",
                "waterway": "waterfall",
                "width": "2"
            }
        },
        {
            "type": "node",
            "id": 8974722717,
            "lat": -17.8715966,
            "lon": -64.5327237,
            "tags": {
                "name": "Laguna Verde",
                "tourism": "attraction"
            }
        },
        {
            "type": "node",
            "id": 8975104417,
            "lat": -17.8808638,
            "lon": -64.4998749,
            "tags": {
                "name": "Vista panorámica soy Travel Comarapa",
                "tourism": "attraction"
            }
        },
        {
            "type": "node",
            "id": 9010483269,
            "lat": 36.9954837,
            "lon": -122.0383885,
            "tags": {
                "name": "\"The Lost Boys\" Grandpa's House",
                "tourism": "attraction"
            }
        },
        {
            "type": "node",
            "id": 9061875117,
            "lat": -17.6614759,
            "lon": -63.5497212,
            "tags": {
                "name": "Eco Albergue Villa Amboro",
                "tourism": "attraction"
            }
        },
        {
            "type": "node",
            "id": 9208942779,
            "lat": -34.6269685,
            "lon": -71.2705379,
            "tags": {
                "historic": "ruins",
                "name": "Castillo de Apalta",
                "ruins": "farmhouse",
                "tourism": "attraction"
            }
        },
        {
            "type": "node",
            "id": 9220126317,
            "lat": -17.8363286,
            "lon": -60.744802,
            "tags": {
                "name": "Pitagoras",
                "tourism": "attraction"
            }
        },
        {
            "type": "node",
            "id": 9348697917,
            "lat": -18.2255774,
            "lon": -63.7328329,
            "tags": {
                "name": "Mirador",
                "tourism": "attraction"
            }
        },
        {
            "type": "node",
            "id": 9451607317,
            "lat": -47.1410401,
            "lon": -70.6598976,
            "tags": {
                "name": "Sendero La Guanaca",
                "tourism": "attraction"
            }
        },
        {
            "type": "node",
            "id": 9916537833,
            "lat": -18.5040077,
            "lon": -64.1204625,
            "tags": {
                "addr:city": "Vallegrande",
                "name": "Letras en la Montaña (Cristo Viene Ya)",
                "tourism": "attraction"
            }
        },
        {
            "type": "node",
            "id": 9952742017,
            "lat": -17.8850971,
            "lon": -60.7425429,
            "tags": {
                "name": "La Ventana",
                "tourism": "attraction"
            }
        },
        {
            "type": "node",
            "id": 10064715117,
            "lat": -50.0655178,
            "lon": -72.1145049,
            "tags": {
                "addr:street": "Km 615",
                "name": "La leona",
                "tourism": "attraction"
            }
        },
        {
            "type": "node",
            "id": 10097934718,
            "lat": 14.6001068,
            "lon": 120.9802766,
            "tags": {
                "name": "arch of good will",
                "tourism": "attraction"
            },
            "image_url": "https://upload.wikimedia.org/wikipedia/commons/d/dc/Carriedo_Fountain_05.jpg",
            "image_source": "wikipedia_verified"
        },
        {
            "type": "node",
            "id": 10288346411,
            "lat": -20.0161731,
            "lon": -63.585952,
            "tags": {
                "name": "El Chorro",
                "tourism": "attraction"
            }
        },
        {
            "type": "node",
            "id": 10288356609,
            "lat": -17.4145638,
            "lon": -63.0938497,
            "tags": {
                "name": "Laguna",
                "tourism": "attraction"
            }
        },
        {
            "type": "node",
            "id": 10451201309,
            "lat": -50.3472611,
            "lon": -72.5428145,
            "tags": {
                "name": "Estância Cerro Frias",
                "tourism": "attraction"
            }
        },
        {
            "type": "node",
            "id": 10544336944,
            "lat": -49.3372487,
            "lon": -72.8813445,
            "tags": {
                "name": "Sendero Mirador de los Cóndores",
                "tourism": "attraction"
            }
        },
        {
            "type": "node",
            "id": 10704735613,
            "lat": 16.2399331,
            "lon": -89.0704284,
            "tags": {
                "name": "Stela",
                "tourism": "attraction"
            }
        },
        {
            "type": "node",
            "id": 10704735614,
            "lat": 16.2406153,
            "lon": -89.0705021,
            "tags": {
                "name": "Stelae",
                "tourism": "attraction"
            }
        },
        {
            "type": "node",
            "id": 10704768005,
            "lat": 16.2411249,
            "lon": -89.0701859,
            "tags": {
                "name": "Archaeological Site Uxbenka (Uchben'Kaj)",
                "tourism": "attraction"
            }
        },
        {
            "type": "node",
            "id": 10704768006,
            "lat": 16.2409463,
            "lon": -89.0702287,
            "tags": {
                "name": "Mound with excavated tombs",
                "tourism": "attraction"
            }
        },
        {
            "type": "node",
            "id": 10717996706,
            "lat": -50.3392882,
            "lon": -72.289748,
            "tags": {
                "name": "Cartel de El Calafate",
                "survey:date": "2023-05-07",
                "tourism": "attraction"
            }
        },
        {
            "type": "node",
            "id": 10844480805,
            "lat": -47.8702734,
            "lon": -72.2015712,
            "tags": {
                "fee": "no",
                "fireplace": "no",
                "name": "Puesto del 9",
                "place": "farm",
                "tourism": "attraction"
            }
        },
        {
            "type": "node",
            "id": 10905647105,
            "lat": -17.8456416,
            "lon": -60.7416185,
            "tags": {
                "name": "Museo Misión Jesuítica",
                "tourism": "museum"
            }
        },
        {
            "type": "node",
            "id": 11160097405,
            "lat": -22.9238924,
            "lon": -43.6915819,
            "tags": {
                "name": "Vila Operária",
                "tourism": "attraction"
            }
        },
        {
            "type": "node",
            "id": 11160098305,
            "lat": -22.9202306,
            "lon": -43.6853333,
            "tags": {
                "name": "Casa de Cesário de Mello",
                "tourism": "museum"
            },
            "image_url": "https://upload.wikimedia.org/wikipedia/commons/d/da/Montagem_Santa_Cruz%2C_Rio_de_Janeiro%2C_RJ.jpg",
            "image_source": "wikipedia_verified"
        },
        {
            "type": "node",
            "id": 11160099905,
            "lat": -22.9129369,
            "lon": -43.6864729,
            "tags": {
                "name": "Casa do Sal",
                "tourism": "attraction"
            },
            "image_url": "https://upload.wikimedia.org/wikipedia/commons/5/56/Batalh%C3%A3o_Vilagran_Cabrita.jpg",
            "image_source": "wikipedia_verified"
        },
        {
            "type": "node",
            "id": 11234887182,
            "lat": -46.489625,
            "lon": -67.4815464,
            "tags": {
                "name": "Reserva Provincial Lobos Marinos",
                "tourism": "attraction"
            }
        },
        {
            "type": "node",
            "id": 11237462336,
            "lat": -52.0747584,
            "lon": -69.5810723,
            "tags": {
                "name": "Laguna Azul",
                "tourism": "attraction",
                "website": "https://cap.santacruz.gob.ar/"
            }
        },
        {
            "type": "node",
            "id": 11238819399,
            "lat": -52.3653476,
            "lon": -68.4049371,
            "tags": {
                "name": "Pingüinera Cabo Vírgenes",
                "tourism": "attraction"
            }
        },
        {
            "type": "node",
            "id": 11238819400,
            "lat": -52.3651838,
            "lon": -68.4050337,
            "tags": {
                "name": "Reserva Provincial Cabo Vírgenes",
                "tourism": "attraction"
            }
        },
        {
            "type": "node",
            "id": 11238863963,
            "lat": -51.6281626,
            "lon": -69.619613,
            "tags": {
                "name": "Virgen de Güer Aike",
                "tourism": "attraction"
            }
        },
        {
            "type": "node",
            "id": 11239374450,
            "lat": -51.6275083,
            "lon": -68.9610609,
            "tags": {
                "name": "Buque Marjory Glen",
                "tourism": "attraction"
            }
        },
        {
            "type": "node",
            "id": 11239681004,
            "lat": -50.4690325,
            "lon": -73.0298567,
            "tags": {
                "name": "Glaciar Perito Moreno",
                "tourism": "attraction"
            }
        },
        {
            "type": "node",
            "id": 11239854350,
            "lat": -49.8090872,
            "lon": -72.0530981,
            "tags": {
                "name": "Parador La Leona",
                "tourism": "museum"
            }
        },
        {
            "type": "node",
            "id": 11239918142,
            "lat": -49.6986937,
            "lon": -71.8708071,
            "tags": {
                "name": "El Pez Metálico",
                "tourism": "attraction"
            }
        },
        {
            "type": "node",
            "id": 11240304322,
            "lat": -47.1564395,
            "lon": -70.6576091,
            "tags": {
                "name": "Cueva de las Manos",
                "tourism": "attraction"
            },
            "image_url": "https://upload.wikimedia.org/wikipedia/commons/thumb/f/f4/SantaCruz-CuevaManos-P2210651b.jpg/1280px-SantaCruz-CuevaManos-P2210651b.jpg",
            "image_source": "wikipedia_verified"
        },
        {
            "type": "node",
            "id": 11240304327,
            "lat": -47.1837845,
            "lon": -70.8556339,
            "tags": {
                "name": "Acceso Cueva de las Manos",
                "tourism": "attraction"
            }
        },
        {
            "type": "node",
            "id": 11242196801,
            "lat": -46.5928145,
            "lon": -70.9246257,
            "tags": {
                "name": "Museo De Arqueología Carlos Gradin",
                "tourism": "museum"
            }
        },
        {
            "type": "node",
            "id": 11244474737,
            "lat": -17.8084557,
            "lon": -63.2809142,
            "tags": {
                "access": "customers",
                "leisure": "water_park",
                "lit": "yes",
                "location": "outdoor",
                "name": "Parque Acuatico Capiguara",
                "sidewalk": "yes",
                "swimming_pool": "outdoor",
                "tourism": "attraction"
            }
        },
        {
            "type": "node",
            "id": 11258348904,
            "lat": -51.561343,
            "lon": -72.2100905,
            "tags": {
                "name": "Cascada",
                "tourism": "attraction"
            }
        },
        {
            "type": "node",
            "id": 11258379983,
            "lat": -51.5732689,
            "lon": -72.3465103,
            "tags": {
                "name": "Mina 1",
                "tourism": "attraction"
            }
        },
        {
            "type": "node",
            "id": 11261605398,
            "lat": -48.7529704,
            "lon": -70.2472419,
            "tags": {
                "fee": "no",
                "name": "Museo La Herreria",
                "tourism": "museum"
            }
        },
        {
            "type": "node",
            "id": 11335047390,
            "lat": -49.3128326,
            "lon": -67.7146626,
            "tags": {
                "name": "Réplica del Barco \"Nao Victoria\" de Hernando de Magallanes",
                "tourism": "attraction"
            }
        },
        {
            "type": "node",
            "id": 11335047391,
            "lat": -49.3103189,
            "lon": -67.7168888,
            "tags": {
                "name": "Avión Mirage Dagger",
                "tourism": "attraction"
            }
        },
        {
            "type": "node",
            "id": 11335116998,
            "lat": -50.4525311,
            "lon": -72.5728941,
            "tags": {
                "historic": "memorial",
                "name": "Memorial Huelgas Patagónicas",
                "tourism": "attraction"
            }
        },
        {
            "type": "node",
            "id": 11341299871,
            "lat": -19.9476413,
            "lon": -40.170793,
            "tags": {
                "internet_access": "wlan",
                "name": "Tekoá Mirim Aldeia Tematika",
                "name:en": "Tekoá Mirim",
                "tourism": "attraction"
            }
        },
        {
            "type": "node",
            "id": 11503446769,
            "lat": 37.3848691,
            "lon": -5.9913082,
            "tags": {
                "name": "Patio de Banderas",
                "tourism": "attraction"
            },